{"type":"FeatureCollection", "features": [
{"type":"Feature","geometry":{"type":"Point","coordinates":[-123.37208228399999,48.42804025500004]},"properties":{"id":24,"countID":2,"onStreet":"Johnson St Bridge","location":"W","xStreet":"Wharf St","countDirec":"EW","Month":5,"Year":2017,"peakHour":510}},
{"type":"Feature","geometry":{"type":"Point","coordinates":[-123.38871336499994,48.43082210800003]},"properties":{"id":44,"countID":3,"onStreet":"E&N Rail Trail","location":"N","xStreet":"Esquimalt Rd","countDirec":"NS","Month":5,"Year":2017,"peakHour":55}},
{"type":"Feature","geometry":{"type":"Point","coordinates":[-123.37755967999999,48.45557769000004]},"properties":{"id":64,"countID":4,"onStreet":"Galloping Goose Regional Trail","location":"S","xStreet":"Information Booth at Switch Bridge","countDirec":"NS","Month":5,"Year":2017,"peakHour":463}},
{"type":"Feature","geometry":{"type":"Point","coordinates":[-123.36143224399996,48.47028295900003]},"properties":{"id":84,"countID":5,"onStreet":"Lochside Regional Trail","location":"S","xStreet":"McKenzie Ave","countDirec":"NS","Month":5,"Year":2017,"peakHour":184}},
{"type":"Feature","geometry":{"type":"Point","coordinates":[-123.39451077099994,48.45920884600008]},"properties":{"id":104,"countID":6,"onStreet":"Interuban Rd","location":"N","xStreet":"Burnside Rd W","countDirec":"NS","Month":5,"Year":2017,"peakHour":57}},
{"type":"Feature","geometry":{"type":"Point","coordinates":[-123.43149381699999,48.45175934700006]},"properties":{"id":116,"countID":7,"onStreet":"E&N Rail Trail","location":"S","xStreet":"Portage Park Trail","countDirec":"NS","Month":5,"Year":2017,"peakHour":150}},
{"type":"Feature","geometry":{"type":"Point","coordinates":[-123.38293690399996,48.43761650300007]},"properties":{"id":136,"countID":8,"onStreet":"Galloping Goose Regional Trail","location":"S","xStreet":"Selkirk Trestle","countDirec":"NS","Month":5,"Year":2017,"peakHour":353}},
{"type":"Feature","geometry":{"type":"Point","coordinates":[-123.36732099299996,48.43554077300007]},"properties":{"id":156,"countID":9,"onStreet":"Government St","location":"S","xStreet":"Bay St","countDirec":"NS","Month":5,"Year":2017,"peakHour":61}},
{"type":"Feature","geometry":{"type":"Point","coordinates":[-123.36532232199994,48.43546488900006]},"properties":{"id":176,"countID":10,"onStreet":"Douglas St","location":"S","xStreet":"Bay St","countDirec":"NS","Month":5,"Year":2017,"peakHour":39}},
{"type":"Feature","geometry":{"type":"Point","coordinates":[-123.36285683699998,48.43500422200003]},"properties":{"id":196,"countID":11,"onStreet":"Blanshard St","location":"S","xStreet":"Bay St","countDirec":"NS","Month":5,"Year":2017,"peakHour":70}},
{"type":"Feature","geometry":{"type":"Point","coordinates":[-123.33922351199999,48.43614739000003]},"properties":{"id":216,"countID":12,"onStreet":"Haultain St","location":"W","xStreet":"Forbes St","countDirec":"EW","Month":5,"Year":2017,"peakHour":136}},
{"type":"Feature","geometry":{"type":"Point","coordinates":[-123.35413739399996,48.42312659400005]},"properties":{"id":236,"countID":13,"onStreet":"Cook St","location":"S","xStreet":"Fort St","countDirec":"NS","Month":5,"Year":2017,"peakHour":62}},
{"type":"Feature","geometry":{"type":"Point","coordinates":[-123.35698388699996,48.42345927000008]},"properties":{"id":256,"countID":14,"onStreet":"Vancouver St","location":"S","xStreet":"Fort St","countDirec":"NS","Month":5,"Year":2017,"peakHour":98}},
{"type":"Feature","geometry":{"type":"Point","coordinates":[-123.36282109999996,48.41985707500004]},"properties":{"id":276,"countID":15,"onStreet":"Humboldt St","location":"E","xStreet":"Blanshard St","countDirec":"EW","Month":5,"Year":2017,"peakHour":55}},
{"type":"Feature","geometry":{"type":"Point","coordinates":[-123.31568390899997,48.45844384000003]},"properties":{"id":296,"countID":16,"onStreet":"Henderson Rd","location":"S","xStreet":"Cedar Hill Cross Rd","countDirec":"NS","Month":5,"Year":2017,"peakHour":142}},
{"type":"Feature","geometry":{"type":"Point","coordinates":[-123.32230939799996,48.42645981600003]},"properties":{"id":304,"countID":18,"onStreet":"Oak Bay Ave","location":"E","xStreet":"Foul Bay Rd","countDirec":"EW","Month":5,"Year":2017,"peakHour":38}},
{"type":"Feature","geometry":{"type":"Point","coordinates":[-123.35749773599997,48.40790452600004]},"properties":{"id":324,"countID":19,"onStreet":"Dallas Rd","location":"E","xStreet":"Cook St","countDirec":"EW","Month":5,"Year":2017,"peakHour":52}},
{"type":"Feature","geometry":{"type":"Point","coordinates":[-123.33605661499996,48.42696300100005]},"properties":{"id":336,"countID":20,"onStreet":"Fort St","location":"N","xStreet":"Oak Bay Ave","countDirec":"EW","Month":5,"Year":2017,"peakHour":89}},
{"type":"Feature","geometry":{"type":"Point","coordinates":[-123.65354543899997,48.39448543300006]},"properties":{"id":356,"countID":21,"onStreet":"Galloping Goose Regional Trail","location":"N","xStreet":"Sooke Rd","countDirec":"EW","Month":5,"Year":2017,"peakHour":3}},
{"type":"Feature","geometry":{"type":"Point","coordinates":[-123.36180267399999,48.50112326000004]},"properties":{"id":368,"countID":22,"onStreet":"Lochside Dr","location":"S","xStreet":"Royal Oak Dr","countDirec":"NS","Month":5,"Year":2017,"peakHour":48}},
{"type":"Feature","geometry":{"type":"Point","coordinates":[-123.40032711099997,48.64379897800006]},"properties":{"id":376,"countID":23,"onStreet":"Fifth St","location":"S","xStreet":"Ocean Ave","countDirec":"NS","Month":5,"Year":2017,"peakHour":36}},
{"type":"Feature","geometry":{"type":"Point","coordinates":[-123.41633158599996,48.66236781500004]},"properties":{"id":396,"countID":24,"onStreet":"Lochside Regional Trail","location":"S","xStreet":"Ardwell Ave","countDirec":"NS","Month":5,"Year":2017,"peakHour":43}},
{"type":"Feature","geometry":{"type":"Point","coordinates":[-123.35445430899995,48.41958585700007]},"properties":{"id":415,"countID":27,"onStreet":"Richardson St","location":"E","xStreet":"Cook St","countDirec":"EW","Month":5,"Year":2017,"peakHour":61}},
{"type":"Feature","geometry":{"type":"Point","coordinates":[-123.36082883499995,48.42765657900003]},"properties":{"id":435,"countID":28,"onStreet":"Pandora St","location":"E","xStreet":"Blanshard St","countDirec":"EW","Month":5,"Year":2017,"peakHour":179}},
{"type":"Feature","geometry":{"type":"Point","coordinates":[-123.36092180999998,48.42676189800005]},"properties":{"id":457,"countID":29,"onStreet":"Johnson St","location":"E","xStreet":"Blanshard St","countDirec":"EW","Month":5,"Year":2017,"peakHour":86}},
{"type":"Feature","geometry":{"type":"Point","coordinates":[-123.36883685199996,48.42103860100008]},"properties":{"id":475,"countID":30,"onStreet":"Government St","location":"N","xStreet":"Belleville St","countDirec":"NS","Month":5,"Year":2017,"peakHour":150}},
{"type":"Feature","geometry":{"type":"Point","coordinates":[-123.37727128899996,48.457034287000056]},"properties":{"id":495,"countID":31,"onStreet":"Lochside Regional Trail","location":"N","xStreet":"Switch Bridge","countDirec":"NS","Month":5,"Year":2017,"peakHour":278}},
{"type":"Feature","geometry":{"type":"Point","coordinates":[-123.37839444499997,48.45629315900004]},"properties":{"id":515,"countID":32,"onStreet":"Galloping Goose Regional Trail","location":"N","xStreet":"Crease Rd","countDirec":"EW","Month":5,"Year":2017,"peakHour":237}},
{"type":"Feature","geometry":{"type":"Point","coordinates":[-123.41763092899998,48.43683759600003]},"properties":{"id":535,"countID":33,"onStreet":"Admirals Rd","location":"S","xStreet":"Colville Rd","countDirec":"NS","Month":5,"Year":2017,"peakHour":75}},
{"type":"Feature","geometry":{"type":"Point","coordinates":[-123.33275729999997,48.468277681000075]},"properties":{"id":547,"countID":34,"onStreet":"Shelbourne St","location":"S","xStreet":"McKenzie Ave","countDirec":"NS","Month":5,"Year":2017,"peakHour":26}},
{"type":"Feature","geometry":{"type":"Point","coordinates":[-123.33298717799994,48.45890960400004]},"properties":{"id":555,"countID":36,"onStreet":"Shelbourne St","location":"N","xStreet":"Pear St","countDirec":"NS","Month":5,"Year":2017,"peakHour":28}},
{"type":"Feature","geometry":{"type":"Point","coordinates":[-123.379325129,48.442833248000056]},"properties":{"id":575,"countID":37,"onStreet":"Gorge Rd","location":"W","xStreet":"Jutland Rd","countDirec":"EW","Month":5,"Year":2017,"peakHour":52}},
{"type":"Feature","geometry":{"type":"Point","coordinates":[-123.49651841099995,48.447818217000076]},"properties":{"id":595,"countID":38,"onStreet":"Goldstream Ave","location":"W","xStreet":"Veterans Memorial Pky","countDirec":"EW","Month":5,"Year":2017,"peakHour":34}},
{"type":"Feature","geometry":{"type":"Point","coordinates":[-123.46834573999996,48.44551078400008]},"properties":{"id":607,"countID":39,"onStreet":"Wale Rd","location":"W","xStreet":"Island Hwy","countDirec":"EW","Month":5,"Year":2017,"peakHour":33}},
{"type":"Feature","geometry":{"type":"Point","coordinates":[-123.40729603799997,48.42964775100006]},"properties":{"id":619,"countID":40,"onStreet":"Esquimalt Rd","location":"W","xStreet":"Lampson St","countDirec":"EW","Month":5,"Year":2017,"peakHour":60}},
{"type":"Feature","geometry":{"type":"Point","coordinates":[-123.42401988499995,48.45064374800006]},"properties":{"id":627,"countID":41,"onStreet":"Craigflower Rd","location":"E","xStreet":"Admirals Rd","countDirec":"EW","Month":5,"Year":2017,"peakHour":31}},
{"type":"Feature","geometry":{"type":"Point","coordinates":[-123.72342415699995,48.377725059000056]},"properties":{"id":639,"countID":42,"onStreet":"Sooke Rd","location":"N","xStreet":"Otter Point Rd","countDirec":"EW","Month":5,"Year":2017,"peakHour":8}},
{"type":"Feature","geometry":{"type":"Point","coordinates":[-123.45482807499997,48.460937873000034]},"properties":{"id":659,"countID":43,"onStreet":"Galloping Goose Regional Trail","location":"S","xStreet":"E&N Rail Trail","countDirec":"EW","Month":5,"Year":2017,"peakHour":154}},
{"type":"Feature","geometry":{"type":"Point","coordinates":[-123.44579941699999,48.57559392400003]},"properties":{"id":667,"countID":44,"onStreet":"West Saanich Rd","location":"N","xStreet":"Wallace Dr","countDirec":"NS","Month":5,"Year":2017,"peakHour":12}},
{"type":"Feature","geometry":{"type":"Point","coordinates":[-123.31447473299994,48.460206665000044]},"properties":{"id":687,"countID":45,"onStreet":"University Dr","location":"S","xStreet":"Ring Rd","countDirec":"NS","Month":5,"Year":2017,"peakHour":142}},
{"type":"Feature","geometry":{"type":"Point","coordinates":[-123.70094830699998,48.38740964300007]},"properties":{"id":695,"countID":46,"onStreet":"Sooke Rd","location":"W","xStreet":"Sooke River Rd","countDirec":"EW","Month":5,"Year":2017,"peakHour":6}},
{"type":"Feature","geometry":{"type":"Point","coordinates":[-123.38809107199995,48.46725218900008]},"properties":{"id":707,"countID":47,"onStreet":"Glanford Ave","location":"N","xStreet":"McKenzie Ave","countDirec":"NS","Month":5,"Year":2017,"peakHour":24}},
{"type":"Feature","geometry":{"type":"Point","coordinates":[-123.36303729399998,48.46796744800008]},"properties":{"id":715,"countID":48,"onStreet":"Lochside Regional Trail","location":"S","xStreet":"Quadra St","countDirec":"NS","Month":5,"Year":2017,"peakHour":194}},
{"type":"Feature","geometry":{"type":"Point","coordinates":[-123.36063761499997,48.47177904800003]},"properties":{"id":723,"countID":49,"onStreet":"Lochside Regional Trail","location":"N","xStreet":"Cedar Hill Cross Rd","countDirec":"NS","Month":5,"Year":2017,"peakHour":91}},
{"type":"Feature","geometry":{"type":"Point","coordinates":[-123.35739819599996,48.423781673000065]},"properties":{"id":731,"countID":50,"onStreet":"Fort St","location":"W","xStreet":"Vancouver St","countDirec":"EW","Month":5,"Year":2017,"peakHour":68}},
{"type":"Feature","geometry":{"type":"Point","coordinates":[-123.32696780299995,48.44615601500004]},"properties":{"id":751,"countID":51,"onStreet":"Lansdowne Rd","location":"W","xStreet":"Richmond Rd","countDirec":"EW","Month":5,"Year":2017,"peakHour":38}},
{"type":"Feature","geometry":{"type":"Point","coordinates":[-123.35286672199999,48.42713086600003]},"properties":{"id":763,"countID":52,"onStreet":"Pandora Ave","location":"E","xStreet":"Cook St","countDirec":"EW","Month":5,"Year":2017,"peakHour":79}},
{"type":"Feature","geometry":{"type":"Point","coordinates":[-123.35497457499997,48.41795433200008]},"properties":{"id":778,"countID":53,"onStreet":"Fairfield Rd","location":"E","xStreet":"Cook St","countDirec":"EW","Month":5,"Year":2017,"peakHour":53}},
{"type":"Feature","geometry":{"type":"Point","coordinates":[-123.33330532599996,48.44580724900004]},"properties":{"id":798,"countID":54,"onStreet":"Shelbourne St","location":"N","xStreet":"Hillside Ave","countDirec":"NS","Month":5,"Year":2017,"peakHour":35}},
{"type":"Feature","geometry":{"type":"Point","coordinates":[-123.33140648399996,48.468595976000074]},"properties":{"id":9227,"countID":35,"onStreet":"McKenzie Ave","location":"E","xStreet":"Shelbourne St","countDirec":"EW","Month":10,"Year":2011,"peakHour":61}},
{"type":"Feature","geometry":{"type":"Point","coordinates":[-123.46834573999996,48.44551078400008]},"properties":{"id":9228,"countID":39,"onStreet":"Wale Rd","location":"W","xStreet":"Island Hwy","countDirec":"EW","Month":10,"Year":2011,"peakHour":31}},
{"type":"Feature","geometry":{"type":"Point","coordinates":[-123.44603987299996,48.46464479800005]},"properties":{"id":9305,"countID":58,"onStreet":"Galloping Goose","location":"E","xStreet":"Burnside Rd W","countDirec":"EW","Month":10,"Year":2011,"peakHour":79}},
{"type":"Feature","geometry":{"type":"Point","coordinates":[-123.65354543899997,48.39448543300006]},"properties":{"id":9313,"countID":21,"onStreet":"Galloping Goose Regional Trail","location":"N","xStreet":"Sooke Rd","countDirec":"EW","Month":10,"Year":2011,"peakHour":3}},
{"type":"Feature","geometry":{"type":"Point","coordinates":[-123.36092180999998,48.42676189800005]},"properties":{"id":9314,"countID":29,"onStreet":"Johnson St","location":"E","xStreet":"Blanshard St","countDirec":"EW","Month":10,"Year":2011,"peakHour":67}},
{"type":"Feature","geometry":{"type":"Point","coordinates":[-123.49651841099995,48.447818217000076]},"properties":{"id":9316,"countID":38,"onStreet":"Goldstream Ave","location":"W","xStreet":"Veterans Memorial Pky","countDirec":"EW","Month":10,"Year":2011,"peakHour":19}},
{"type":"Feature","geometry":{"type":"Point","coordinates":[-123.32230939799996,48.42645981600003]},"properties":{"id":9420,"countID":18,"onStreet":"Oak Bay Ave","location":"E","xStreet":"Foul Bay Rd","countDirec":"EW","Month":10,"Year":2011,"peakHour":47}},
{"type":"Feature","geometry":{"type":"Point","coordinates":[-123.42401988499995,48.45064374800006]},"properties":{"id":9471,"countID":41,"onStreet":"Craigflower Rd","location":"E","xStreet":"Admirals Rd","countDirec":"EW","Month":10,"Year":2011,"peakHour":29}},
{"type":"Feature","geometry":{"type":"Point","coordinates":[-123.31869200199998,48.46852549000005]},"properties":{"id":9548,"countID":17,"onStreet":"McKenzie Ave","location":"E","xStreet":"Gordon Head Rd","countDirec":"EW","Month":10,"Year":2011,"peakHour":60}},
{"type":"Feature","geometry":{"type":"Point","coordinates":[-123.37839444499997,48.45629315900004]},"properties":{"id":9549,"countID":32,"onStreet":"Galloping Goose Regional Trail","location":"N","xStreet":"Crease Rd","countDirec":"EW","Month":10,"Year":2011,"peakHour":176}},
{"type":"Feature","geometry":{"type":"Point","coordinates":[-123.31869200199998,48.46852549000005]},"properties":{"id":9749,"countID":17,"onStreet":"McKenzie Ave","location":"E","xStreet":"Gordon Head Rd","countDirec":"EW","Month":10,"Year":2012,"peakHour":94}},
{"type":"Feature","geometry":{"type":"Point","coordinates":[-123.72342415699995,48.377725059000056]},"properties":{"id":9750,"countID":42,"onStreet":"Sooke Rd","location":"N","xStreet":"Otter Point Rd","countDirec":"EW","Month":10,"Year":2012,"peakHour":13}},
{"type":"Feature","geometry":{"type":"Point","coordinates":[-123.36092180999998,48.42676189800005]},"properties":{"id":9901,"countID":29,"onStreet":"Johnson St","location":"E","xStreet":"Blanshard St","countDirec":"EW","Month":10,"Year":2012,"peakHour":101}},
{"type":"Feature","geometry":{"type":"Point","coordinates":[-123.33140648399996,48.468595976000074]},"properties":{"id":9902,"countID":35,"onStreet":"McKenzie Ave","location":"E","xStreet":"Shelbourne St","countDirec":"EW","Month":10,"Year":2012,"peakHour":66}},
{"type":"Feature","geometry":{"type":"Point","coordinates":[-123.42401988499995,48.45064374800006]},"properties":{"id":9903,"countID":41,"onStreet":"Craigflower Rd","location":"E","xStreet":"Admirals Rd","countDirec":"EW","Month":10,"Year":2012,"peakHour":28}},
{"type":"Feature","geometry":{"type":"Point","coordinates":[-123.32230939799996,48.42645981600003]},"properties":{"id":10164,"countID":18,"onStreet":"Oak Bay Ave","location":"E","xStreet":"Foul Bay Rd","countDirec":"EW","Month":10,"Year":2012,"peakHour":57}},
{"type":"Feature","geometry":{"type":"Point","coordinates":[-123.37208228399999,48.42804025500004]},"properties":{"id":10165,"countID":2,"onStreet":"Johnson St Bridge","location":"W","xStreet":"Wharf St","countDirec":"EW","Month":10,"Year":2012,"peakHour":385}},
{"type":"Feature","geometry":{"type":"Point","coordinates":[-123.46834573999996,48.44551078400008]},"properties":{"id":10167,"countID":39,"onStreet":"Wale Rd","location":"W","xStreet":"Island Hwy","countDirec":"EW","Month":10,"Year":2012,"peakHour":36}},
{"type":"Feature","geometry":{"type":"Point","coordinates":[-123.44603987299996,48.46464479800005]},"properties":{"id":10496,"countID":58,"onStreet":"Galloping Goose","location":"E","xStreet":"Burnside Rd W","countDirec":"EW","Month":10,"Year":2012,"peakHour":87}},
{"type":"Feature","geometry":{"type":"Point","coordinates":[-123.65354543899997,48.39448543300006]},"properties":{"id":10520,"countID":21,"onStreet":"Galloping Goose Regional Trail","location":"N","xStreet":"Sooke Rd","countDirec":"EW","Month":10,"Year":2012,"peakHour":6}},
{"type":"Feature","geometry":{"type":"Point","coordinates":[-123.37839444499997,48.45629315900004]},"properties":{"id":10521,"countID":32,"onStreet":"Galloping Goose Regional Trail","location":"N","xStreet":"Crease Rd","countDirec":"EW","Month":10,"Year":2012,"peakHour":216}},
{"type":"Feature","geometry":{"type":"Point","coordinates":[-123.49651841099995,48.447818217000076]},"properties":{"id":10678,"countID":38,"onStreet":"Goldstream Ave","location":"W","xStreet":"Veterans Memorial Pky","countDirec":"EW","Month":10,"Year":2012,"peakHour":35}},
{"type":"Feature","geometry":{"type":"Point","coordinates":[-123.31869200199998,48.46852549000005]},"properties":{"id":11360,"countID":17,"onStreet":"McKenzie Ave","location":"E","xStreet":"Gordon Head Rd","countDirec":"EW","Month":5,"Year":2013,"peakHour":75}},
{"type":"Feature","geometry":{"type":"Point","coordinates":[-123.37839444499997,48.45629315900004]},"properties":{"id":11361,"countID":32,"onStreet":"Galloping Goose Regional Trail","location":"N","xStreet":"Crease Rd","countDirec":"EW","Month":5,"Year":2013,"peakHour":282}},
{"type":"Feature","geometry":{"type":"Point","coordinates":[-123.36092180999998,48.42676189800005]},"properties":{"id":11472,"countID":29,"onStreet":"Johnson St","location":"E","xStreet":"Blanshard St","countDirec":"EW","Month":5,"Year":2013,"peakHour":86}},
{"type":"Feature","geometry":{"type":"Point","coordinates":[-123.72342415699995,48.377725059000056]},"properties":{"id":11474,"countID":42,"onStreet":"Sooke Rd","location":"N","xStreet":"Otter Point Rd","countDirec":"EW","Month":5,"Year":2013,"peakHour":12}},
{"type":"Feature","geometry":{"type":"Point","coordinates":[-123.37208228399999,48.42804025500004]},"properties":{"id":11557,"countID":2,"onStreet":"Johnson St Bridge","location":"W","xStreet":"Wharf St","countDirec":"EW","Month":5,"Year":2013,"peakHour":444}},
{"type":"Feature","geometry":{"type":"Point","coordinates":[-123.33140648399996,48.468595976000074]},"properties":{"id":11558,"countID":35,"onStreet":"McKenzie Ave","location":"E","xStreet":"Shelbourne St","countDirec":"EW","Month":5,"Year":2013,"peakHour":59}},
{"type":"Feature","geometry":{"type":"Point","coordinates":[-123.49651841099995,48.447818217000076]},"properties":{"id":11559,"countID":38,"onStreet":"Goldstream Ave","location":"W","xStreet":"Veterans Memorial Pky","countDirec":"EW","Month":5,"Year":2013,"peakHour":43}},
{"type":"Feature","geometry":{"type":"Point","coordinates":[-123.42401988499995,48.45064374800006]},"properties":{"id":11560,"countID":41,"onStreet":"Craigflower Rd","location":"E","xStreet":"Admirals Rd","countDirec":"EW","Month":5,"Year":2013,"peakHour":24}},
{"type":"Feature","geometry":{"type":"Point","coordinates":[-123.32223273499994,48.43221492200007]},"properties":{"id":12576,"countID":57,"onStreet":"Cadboro Bay Rd","location":"E","xStreet":"Foul Bay Rd","countDirec":"EW","Month":10,"Year":2013,"peakHour":25}},
{"type":"Feature","geometry":{"type":"Point","coordinates":[-123.35749773599997,48.40790452600004]},"properties":{"id":12583,"countID":19,"onStreet":"Dallas Rd","location":"E","xStreet":"Cook St","countDirec":"EW","Month":10,"Year":2013,"peakHour":50}},
{"type":"Feature","geometry":{"type":"Point","coordinates":[-123.33605661499996,48.42696300100005]},"properties":{"id":12584,"countID":20,"onStreet":"Fort St","location":"N","xStreet":"Oak Bay Ave","countDirec":"EW","Month":10,"Year":2013,"peakHour":67}},
{"type":"Feature","geometry":{"type":"Point","coordinates":[-123.33140648399996,48.468595976000074]},"properties":{"id":12585,"countID":35,"onStreet":"McKenzie Ave","location":"E","xStreet":"Shelbourne St","countDirec":"EW","Month":10,"Year":2013,"peakHour":40}},
{"type":"Feature","geometry":{"type":"Point","coordinates":[-123.40729603799997,48.42964775100006]},"properties":{"id":12586,"countID":40,"onStreet":"Esquimalt Rd","location":"W","xStreet":"Lampson St","countDirec":"EW","Month":10,"Year":2013,"peakHour":52}},
{"type":"Feature","geometry":{"type":"Point","coordinates":[-123.42401988499995,48.45064374800006]},"properties":{"id":12587,"countID":41,"onStreet":"Craigflower Rd","location":"E","xStreet":"Admirals Rd","countDirec":"EW","Month":10,"Year":2013,"peakHour":18}},
{"type":"Feature","geometry":{"type":"Point","coordinates":[-123.72342415699995,48.377725059000056]},"properties":{"id":12588,"countID":42,"onStreet":"Sooke Rd","location":"N","xStreet":"Otter Point Rd","countDirec":"EW","Month":10,"Year":2013,"peakHour":5}},
{"type":"Feature","geometry":{"type":"Point","coordinates":[-123.37208228399999,48.42804025500004]},"properties":{"id":12948,"countID":2,"onStreet":"Johnson St Bridge","location":"W","xStreet":"Wharf St","countDirec":"EW","Month":10,"Year":2013,"peakHour":260}},
{"type":"Feature","geometry":{"type":"Point","coordinates":[-123.36092180999998,48.42676189800005]},"properties":{"id":12949,"countID":29,"onStreet":"Johnson St","location":"E","xStreet":"Blanshard St","countDirec":"EW","Month":10,"Year":2013,"peakHour":57}},
{"type":"Feature","geometry":{"type":"Point","coordinates":[-123.49651841099995,48.447818217000076]},"properties":{"id":12950,"countID":38,"onStreet":"Goldstream Ave","location":"W","xStreet":"Veterans Memorial Pky","countDirec":"EW","Month":10,"Year":2013,"peakHour":12}},
{"type":"Feature","geometry":{"type":"Point","coordinates":[-123.31869200199998,48.46852549000005]},"properties":{"id":13435,"countID":17,"onStreet":"McKenzie Ave","location":"E","xStreet":"Gordon Head Rd","countDirec":"EW","Month":10,"Year":2013,"peakHour":92}},
{"type":"Feature","geometry":{"type":"Point","coordinates":[-123.65354543899997,48.39448543300006]},"properties":{"id":13436,"countID":21,"onStreet":"Galloping Goose Regional Trail","location":"N","xStreet":"Sooke Rd","countDirec":"EW","Month":10,"Year":2013,"peakHour":1}},
{"type":"Feature","geometry":{"type":"Point","coordinates":[-123.37839444499997,48.45629315900004]},"properties":{"id":13437,"countID":32,"onStreet":"Galloping Goose Regional Trail","location":"N","xStreet":"Crease Rd","countDirec":"EW","Month":10,"Year":2013,"peakHour":204}},
{"type":"Feature","geometry":{"type":"Point","coordinates":[-123.46834573999996,48.44551078400008]},"properties":{"id":13438,"countID":39,"onStreet":"Wale Rd","location":"W","xStreet":"Island Hwy","countDirec":"EW","Month":10,"Year":2013,"peakHour":23}},
{"type":"Feature","geometry":{"type":"Point","coordinates":[-123.31869200199998,48.46852549000005]},"properties":{"id":14473,"countID":17,"onStreet":"McKenzie Ave","location":"E","xStreet":"Gordon Head Rd","countDirec":"EW","Month":5,"Year":2014,"peakHour":51}},
{"type":"Feature","geometry":{"type":"Point","coordinates":[-123.35749773599997,48.40790452600004]},"properties":{"id":14474,"countID":19,"onStreet":"Dallas Rd","location":"E","xStreet":"Cook St","countDirec":"EW","Month":5,"Year":2014,"peakHour":77}},
{"type":"Feature","geometry":{"type":"Point","coordinates":[-123.33605661499996,48.42696300100005]},"properties":{"id":14475,"countID":20,"onStreet":"Fort St","location":"N","xStreet":"Oak Bay Ave","countDirec":"EW","Month":5,"Year":2014,"peakHour":80}},
{"type":"Feature","geometry":{"type":"Point","coordinates":[-123.37839444499997,48.45629315900004]},"properties":{"id":14476,"countID":32,"onStreet":"Galloping Goose Regional Trail","location":"N","xStreet":"Crease Rd","countDirec":"EW","Month":5,"Year":2014,"peakHour":253}},
{"type":"Feature","geometry":{"type":"Point","coordinates":[-123.37208228399999,48.42804025500004]},"properties":{"id":14634,"countID":2,"onStreet":"Johnson St Bridge","location":"W","xStreet":"Wharf St","countDirec":"EW","Month":5,"Year":2014,"peakHour":275}},
{"type":"Feature","geometry":{"type":"Point","coordinates":[-123.44603987299996,48.46464479800005]},"properties":{"id":14951,"countID":58,"onStreet":"Galloping Goose","location":"E","xStreet":"Burnside Rd W","countDirec":"EW","Month":10,"Year":2014,"peakHour":90}},
{"type":"Feature","geometry":{"type":"Point","coordinates":[-123.36282109999996,48.41985707500004]},"properties":{"id":14977,"countID":15,"onStreet":"Humboldt St","location":"E","xStreet":"Blanshard St","countDirec":"EW","Month":10,"Year":2014,"peakHour":47}},
{"type":"Feature","geometry":{"type":"Point","coordinates":[-123.32230939799996,48.42645981600003]},"properties":{"id":14978,"countID":18,"onStreet":"Oak Bay Ave","location":"E","xStreet":"Foul Bay Rd","countDirec":"EW","Month":10,"Year":2014,"peakHour":55}},
{"type":"Feature","geometry":{"type":"Point","coordinates":[-123.37208228399999,48.42804025500004]},"properties":{"id":14979,"countID":2,"onStreet":"Johnson St Bridge","location":"W","xStreet":"Wharf St","countDirec":"EW","Month":10,"Year":2014,"peakHour":464}},
{"type":"Feature","geometry":{"type":"Point","coordinates":[-123.36092180999998,48.42676189800005]},"properties":{"id":14980,"countID":29,"onStreet":"Johnson St","location":"E","xStreet":"Blanshard St","countDirec":"EW","Month":10,"Year":2014,"peakHour":98}},
{"type":"Feature","geometry":{"type":"Point","coordinates":[-123.65354543899997,48.39448543300006]},"properties":{"id":15464,"countID":21,"onStreet":"Galloping Goose Regional Trail","location":"N","xStreet":"Sooke Rd","countDirec":"EW","Month":10,"Year":2014,"peakHour":1}},
{"type":"Feature","geometry":{"type":"Point","coordinates":[-123.40729603799997,48.42964775100006]},"properties":{"id":15465,"countID":40,"onStreet":"Esquimalt Rd","location":"W","xStreet":"Lampson St","countDirec":"EW","Month":10,"Year":2014,"peakHour":81}},
{"type":"Feature","geometry":{"type":"Point","coordinates":[-123.45482807499997,48.460937873000034]},"properties":{"id":15466,"countID":43,"onStreet":"Galloping Goose Regional Trail","location":"S","xStreet":"E&N Rail Trail","countDirec":"EW","Month":10,"Year":2014,"peakHour":128}},
{"type":"Feature","geometry":{"type":"Point","coordinates":[-123.32696780299995,48.44615601500004]},"properties":{"id":15467,"countID":51,"onStreet":"Lansdowne Rd","location":"W","xStreet":"Richmond Rd","countDirec":"EW","Month":10,"Year":2014,"peakHour":38}},
{"type":"Feature","geometry":{"type":"Point","coordinates":[-123.37839444499997,48.45629315900004]},"properties":{"id":15634,"countID":32,"onStreet":"Galloping Goose Regional Trail","location":"N","xStreet":"Crease Rd","countDirec":"EW","Month":10,"Year":2014,"peakHour":215}},
{"type":"Feature","geometry":{"type":"Point","coordinates":[-123.379325129,48.442833248000056]},"properties":{"id":15635,"countID":37,"onStreet":"Gorge Rd","location":"W","xStreet":"Jutland Rd","countDirec":"EW","Month":10,"Year":2014,"peakHour":38}},
{"type":"Feature","geometry":{"type":"Point","coordinates":[-123.70094830699998,48.38740964300007]},"properties":{"id":15638,"countID":46,"onStreet":"Sooke Rd","location":"W","xStreet":"Sooke River Rd","countDirec":"EW","Month":10,"Year":2014,"peakHour":26}},
{"type":"Feature","geometry":{"type":"Point","coordinates":[-123.31869200199998,48.46852549000005]},"properties":{"id":15928,"countID":17,"onStreet":"McKenzie Ave","location":"E","xStreet":"Gordon Head Rd","countDirec":"EW","Month":10,"Year":2014,"peakHour":127}},
{"type":"Feature","geometry":{"type":"Point","coordinates":[-123.35749773599997,48.40790452600004]},"properties":{"id":15929,"countID":19,"onStreet":"Dallas Rd","location":"E","xStreet":"Cook St","countDirec":"EW","Month":10,"Year":2014,"peakHour":25}},
{"type":"Feature","geometry":{"type":"Point","coordinates":[-123.33605661499996,48.42696300100005]},"properties":{"id":15930,"countID":20,"onStreet":"Fort St","location":"N","xStreet":"Oak Bay Ave","countDirec":"EW","Month":10,"Year":2014,"peakHour":80}},
{"type":"Feature","geometry":{"type":"Point","coordinates":[-123.33140648399996,48.468595976000074]},"properties":{"id":15932,"countID":35,"onStreet":"McKenzie Ave","location":"E","xStreet":"Shelbourne St","countDirec":"EW","Month":10,"Year":2014,"peakHour":90}},
{"type":"Feature","geometry":{"type":"Point","coordinates":[-123.42401988499995,48.45064374800006]},"properties":{"id":15934,"countID":41,"onStreet":"Craigflower Rd","location":"E","xStreet":"Admirals Rd","countDirec":"EW","Month":10,"Year":2014,"peakHour":26}},
{"type":"Feature","geometry":{"type":"Point","coordinates":[-123.33605661499996,48.42696300100005]},"properties":{"id":16806,"countID":20,"onStreet":"Fort St","location":"N","xStreet":"Oak Bay Ave","countDirec":"EW","Month":5,"Year":2015,"peakHour":81}},
{"type":"Feature","geometry":{"type":"Point","coordinates":[-123.70094830699998,48.38740964300007]},"properties":{"id":16807,"countID":46,"onStreet":"Sooke Rd","location":"W","xStreet":"Sooke River Rd","countDirec":"EW","Month":5,"Year":2015,"peakHour":6}},
{"type":"Feature","geometry":{"type":"Point","coordinates":[-123.36092180999998,48.42676189800005]},"properties":{"id":17050,"countID":29,"onStreet":"Johnson St","location":"E","xStreet":"Blanshard St","countDirec":"EW","Month":5,"Year":2015,"peakHour":82}},
{"type":"Feature","geometry":{"type":"Point","coordinates":[-123.45482807499997,48.460937873000034]},"properties":{"id":17051,"countID":43,"onStreet":"Galloping Goose Regional Trail","location":"S","xStreet":"E&N Rail Trail","countDirec":"EW","Month":5,"Year":2015,"peakHour":118}},
{"type":"Feature","geometry":{"type":"Point","coordinates":[-123.31869200199998,48.46852549000005]},"properties":{"id":17340,"countID":17,"onStreet":"McKenzie Ave","location":"E","xStreet":"Gordon Head Rd","countDirec":"EW","Month":5,"Year":2015,"peakHour":66}},
{"type":"Feature","geometry":{"type":"Point","coordinates":[-123.33140648399996,48.468595976000074]},"properties":{"id":17341,"countID":35,"onStreet":"McKenzie Ave","location":"E","xStreet":"Shelbourne St","countDirec":"EW","Month":5,"Year":2015,"peakHour":67}},
{"type":"Feature","geometry":{"type":"Point","coordinates":[-123.42401988499995,48.45064374800006]},"properties":{"id":17342,"countID":41,"onStreet":"Craigflower Rd","location":"E","xStreet":"Admirals Rd","countDirec":"EW","Month":5,"Year":2015,"peakHour":23}},
{"type":"Feature","geometry":{"type":"Point","coordinates":[-123.35739819599996,48.423781673000065]},"properties":{"id":17343,"countID":50,"onStreet":"Fort St","location":"W","xStreet":"Vancouver St","countDirec":"EW","Month":5,"Year":2015,"peakHour":90}},
{"type":"Feature","geometry":{"type":"Point","coordinates":[-123.35749773599997,48.40790452600004]},"properties":{"id":17616,"countID":19,"onStreet":"Dallas Rd","location":"E","xStreet":"Cook St","countDirec":"EW","Month":5,"Year":2015,"peakHour":86}},
{"type":"Feature","geometry":{"type":"Point","coordinates":[-123.33922351199999,48.43614739000003]},"properties":{"id":17789,"countID":12,"onStreet":"Haultain St","location":"W","xStreet":"Forbes St","countDirec":"EW","Month":5,"Year":2015,"peakHour":99}},
{"type":"Feature","geometry":{"type":"Point","coordinates":[-123.32223273499994,48.43221492200007]},"properties":{"id":17793,"countID":57,"onStreet":"Cadboro Bay Rd","location":"E","xStreet":"Foul Bay Rd","countDirec":"EW","Month":5,"Year":2015,"peakHour":50}},
{"type":"Feature","geometry":{"type":"Point","coordinates":[-123.33605661499996,48.42696300100005]},"properties":{"id":18225,"countID":20,"onStreet":"Fort St","location":"N","xStreet":"Oak Bay Ave","countDirec":"EW","Month":10,"Year":2015,"peakHour":111}},
{"type":"Feature","geometry":{"type":"Point","coordinates":[-123.44603987299996,48.46464479800005]},"properties":{"id":18317,"countID":58,"onStreet":"Galloping Goose","location":"E","xStreet":"Burnside Rd W","countDirec":"EW","Month":10,"Year":2015,"peakHour":91}},
{"type":"Feature","geometry":{"type":"Point","coordinates":[-123.31869200199998,48.46852549000005]},"properties":{"id":18323,"countID":17,"onStreet":"McKenzie Ave","location":"E","xStreet":"Gordon Head Rd","countDirec":"EW","Month":10,"Year":2015,"peakHour":98}},
{"type":"Feature","geometry":{"type":"Point","coordinates":[-123.46834573999996,48.44551078400008]},"properties":{"id":18324,"countID":39,"onStreet":"Wale Rd","location":"W","xStreet":"Island Hwy","countDirec":"EW","Month":10,"Year":2015,"peakHour":36}},
{"type":"Feature","geometry":{"type":"Point","coordinates":[-123.35497457499997,48.41795433200008]},"properties":{"id":18325,"countID":53,"onStreet":"Fairfield Rd","location":"E","xStreet":"Cook St","countDirec":"EW","Month":10,"Year":2015,"peakHour":46}},
{"type":"Feature","geometry":{"type":"Point","coordinates":[-123.35749773599997,48.40790452600004]},"properties":{"id":18422,"countID":19,"onStreet":"Dallas Rd","location":"E","xStreet":"Cook St","countDirec":"EW","Month":10,"Year":2015,"peakHour":14}},
{"type":"Feature","geometry":{"type":"Point","coordinates":[-123.33922351199999,48.43614739000003]},"properties":{"id":18511,"countID":12,"onStreet":"Haultain St","location":"W","xStreet":"Forbes St","countDirec":"EW","Month":10,"Year":2015,"peakHour":69}},
{"type":"Feature","geometry":{"type":"Point","coordinates":[-123.45482807499997,48.460937873000034]},"properties":{"id":18512,"countID":43,"onStreet":"Galloping Goose Regional Trail","location":"S","xStreet":"E&N Rail Trail","countDirec":"EW","Month":10,"Year":2015,"peakHour":108}},
{"type":"Feature","geometry":{"type":"Point","coordinates":[-123.33140648399996,48.468595976000074]},"properties":{"id":18654,"countID":35,"onStreet":"McKenzie Ave","location":"E","xStreet":"Shelbourne St","countDirec":"EW","Month":10,"Year":2015,"peakHour":69}},
{"type":"Feature","geometry":{"type":"Point","coordinates":[-123.42401988499995,48.45064374800006]},"properties":{"id":18726,"countID":41,"onStreet":"Craigflower Rd","location":"E","xStreet":"Admirals Rd","countDirec":"EW","Month":10,"Year":2015,"peakHour":18}},
{"type":"Feature","geometry":{"type":"Point","coordinates":[-123.33922351199999,48.43614739000003]},"properties":{"id":18865,"countID":12,"onStreet":"Haultain St","location":"W","xStreet":"Forbes St","countDirec":"EW","Month":5,"Year":2016,"peakHour":125}},
{"type":"Feature","geometry":{"type":"Point","coordinates":[-123.32223273499994,48.43221492200007]},"properties":{"id":18867,"countID":57,"onStreet":"Cadboro Bay Rd","location":"E","xStreet":"Foul Bay Rd","countDirec":"EW","Month":5,"Year":2016,"peakHour":58}},
{"type":"Feature","geometry":{"type":"Point","coordinates":[-123.40729603799997,48.42964775100006]},"properties":{"id":18872,"countID":40,"onStreet":"Esquimalt Rd","location":"W","xStreet":"Lampson St","countDirec":"EW","Month":5,"Year":2016,"peakHour":65}},
{"type":"Feature","geometry":{"type":"Point","coordinates":[-123.45482807499997,48.460937873000034]},"properties":{"id":18873,"countID":43,"onStreet":"Galloping Goose Regional Trail","location":"S","xStreet":"E&N Rail Trail","countDirec":"EW","Month":5,"Year":2016,"peakHour":176}},
{"type":"Feature","geometry":{"type":"Point","coordinates":[-123.37208228399999,48.42804025500004]},"properties":{"id":18975,"countID":2,"onStreet":"Johnson St Bridge","location":"W","xStreet":"Wharf St","countDirec":"EW","Month":5,"Year":2016,"peakHour":480}},
{"type":"Feature","geometry":{"type":"Point","coordinates":[-123.36282109999996,48.41985707500004]},"properties":{"id":19188,"countID":15,"onStreet":"Humboldt St","location":"E","xStreet":"Blanshard St","countDirec":"EW","Month":5,"Year":2016,"peakHour":44}},
{"type":"Feature","geometry":{"type":"Point","coordinates":[-123.35749773599997,48.40790452600004]},"properties":{"id":19189,"countID":19,"onStreet":"Dallas Rd","location":"E","xStreet":"Cook St","countDirec":"EW","Month":5,"Year":2016,"peakHour":46}},
{"type":"Feature","geometry":{"type":"Point","coordinates":[-123.35445430899995,48.41958585700007]},"properties":{"id":19190,"countID":27,"onStreet":"Richardson St","location":"E","xStreet":"Cook St","countDirec":"EW","Month":5,"Year":2016,"peakHour":64}},
{"type":"Feature","geometry":{"type":"Point","coordinates":[-123.35497457499997,48.41795433200008]},"properties":{"id":19193,"countID":53,"onStreet":"Fairfield Rd","location":"E","xStreet":"Cook St","countDirec":"EW","Month":5,"Year":2016,"peakHour":44}},
{"type":"Feature","geometry":{"type":"Point","coordinates":[-123.35739819599996,48.423781673000065]},"properties":{"id":19312,"countID":50,"onStreet":"Fort St","location":"W","xStreet":"Vancouver St","countDirec":"EW","Month":5,"Year":2016,"peakHour":77}},
{"type":"Feature","geometry":{"type":"Point","coordinates":[-123.42401988499995,48.45064374800006]},"properties":{"id":19500,"countID":41,"onStreet":"Craigflower Rd","location":"E","xStreet":"Admirals Rd","countDirec":"EW","Month":5,"Year":2016,"peakHour":28}},
{"type":"Feature","geometry":{"type":"Point","coordinates":[-123.72342415699995,48.377725059000056]},"properties":{"id":19501,"countID":42,"onStreet":"Sooke Rd","location":"N","xStreet":"Otter Point Rd","countDirec":"EW","Month":5,"Year":2016,"peakHour":8}},
{"type":"Feature","geometry":{"type":"Point","coordinates":[-123.44603987299996,48.46464479800005]},"properties":{"id":19812,"countID":58,"onStreet":"Galloping Goose","location":"E","xStreet":"Burnside Rd W","countDirec":"EW","Month":10,"Year":2016,"peakHour":88}},
{"type":"Feature","geometry":{"type":"Point","coordinates":[-123.31869200199998,48.46852549000005]},"properties":{"id":19822,"countID":17,"onStreet":"McKenzie Ave","location":"E","xStreet":"Gordon Head Rd","countDirec":"EW","Month":10,"Year":2016,"peakHour":109}},
{"type":"Feature","geometry":{"type":"Point","coordinates":[-123.37839444499997,48.45629315900004]},"properties":{"id":19823,"countID":32,"onStreet":"Galloping Goose Regional Trail","location":"N","xStreet":"Crease Rd","countDirec":"EW","Month":10,"Year":2016,"peakHour":204}},
{"type":"Feature","geometry":{"type":"Point","coordinates":[-123.45482807499997,48.460937873000034]},"properties":{"id":19824,"countID":43,"onStreet":"Galloping Goose Regional Trail","location":"S","xStreet":"E&N Rail Trail","countDirec":"EW","Month":10,"Year":2016,"peakHour":148}},
{"type":"Feature","geometry":{"type":"Point","coordinates":[-123.32223273499994,48.43221492200007]},"properties":{"id":20096,"countID":57,"onStreet":"Cadboro Bay Rd","location":"E","xStreet":"Foul Bay Rd","countDirec":"EW","Month":10,"Year":2016,"peakHour":48}},
{"type":"Feature","geometry":{"type":"Point","coordinates":[-123.35445430899995,48.41958585700007]},"properties":{"id":20248,"countID":27,"onStreet":"Richardson St","location":"E","xStreet":"Cook St","countDirec":"EW","Month":10,"Year":2016,"peakHour":60}},
{"type":"Feature","geometry":{"type":"Point","coordinates":[-123.33140648399996,48.468595976000074]},"properties":{"id":20450,"countID":35,"onStreet":"McKenzie Ave","location":"E","xStreet":"Shelbourne St","countDirec":"EW","Month":10,"Year":2016,"peakHour":50}},
{"type":"Feature","geometry":{"type":"Point","coordinates":[-123.70094830699998,48.38740964300007]},"properties":{"id":20451,"countID":46,"onStreet":"Sooke Rd","location":"W","xStreet":"Sooke River Rd","countDirec":"EW","Month":10,"Year":2016,"peakHour":5}},
{"type":"Feature","geometry":{"type":"Point","coordinates":[-123.32696780299995,48.44615601500004]},"properties":{"id":20452,"countID":51,"onStreet":"Lansdowne Rd","location":"W","xStreet":"Richmond Rd","countDirec":"EW","Month":10,"Year":2016,"peakHour":22}},
{"type":"Feature","geometry":{"type":"Point","coordinates":[-123.37208228399999,48.42804025500004]},"properties":{"id":20569,"countID":2,"onStreet":"Johnson St Bridge","location":"W","xStreet":"Wharf St","countDirec":"EW","Month":10,"Year":2016,"peakHour":352}},
{"type":"Feature","geometry":{"type":"Point","coordinates":[-123.31568390899997,48.45844384000003]},"properties":{"id":20738,"countID":16,"onStreet":"Henderson Rd","location":"S","xStreet":"Cedar Hill Cross Rd","countDirec":"NS","Month":10,"Year":2011,"peakHour":172}},
{"type":"Feature","geometry":{"type":"Point","coordinates":[-123.40032711099997,48.64379897800006]},"properties":{"id":20739,"countID":23,"onStreet":"Fifth St","location":"S","xStreet":"Ocean Ave","countDirec":"NS","Month":10,"Year":2011,"peakHour":24}},
{"type":"Feature","geometry":{"type":"Point","coordinates":[-123.41763092899998,48.43683759600003]},"properties":{"id":20740,"countID":33,"onStreet":"Admirals Rd","location":"S","xStreet":"Colville Rd","countDirec":"NS","Month":10,"Year":2011,"peakHour":20}},
{"type":"Feature","geometry":{"type":"Point","coordinates":[-123.33275729999997,48.468277681000075]},"properties":{"id":20741,"countID":34,"onStreet":"Shelbourne St","location":"S","xStreet":"McKenzie Ave","countDirec":"NS","Month":10,"Year":2011,"peakHour":25}},
{"type":"Feature","geometry":{"type":"Point","coordinates":[-123.31447473299994,48.460206665000044]},"properties":{"id":20742,"countID":45,"onStreet":"University Dr","location":"S","xStreet":"Ring Rd","countDirec":"NS","Month":10,"Year":2011,"peakHour":165}},
{"type":"Feature","geometry":{"type":"Point","coordinates":[-123.36143224399996,48.47028295900003]},"properties":{"id":20743,"countID":5,"onStreet":"Lochside Regional Trail","location":"S","xStreet":"McKenzie Ave","countDirec":"NS","Month":10,"Year":2011,"peakHour":140}},
{"type":"Feature","geometry":{"type":"Point","coordinates":[-123.36732099299996,48.43554077300007]},"properties":{"id":20749,"countID":9,"onStreet":"Government St","location":"S","xStreet":"Bay St","countDirec":"NS","Month":10,"Year":2011,"peakHour":55}},
{"type":"Feature","geometry":{"type":"Point","coordinates":[-123.36532232199994,48.43546488900006]},"properties":{"id":20829,"countID":10,"onStreet":"Douglas St","location":"S","xStreet":"Bay St","countDirec":"NS","Month":10,"Year":2011,"peakHour":42}},
{"type":"Feature","geometry":{"type":"Point","coordinates":[-123.36180267399999,48.50112326000004]},"properties":{"id":20840,"countID":22,"onStreet":"Lochside Dr","location":"S","xStreet":"Royal Oak Dr","countDirec":"NS","Month":10,"Year":2011,"peakHour":68}},
{"type":"Feature","geometry":{"type":"Point","coordinates":[-123.36883685199996,48.42103860100008]},"properties":{"id":20841,"countID":30,"onStreet":"Government St","location":"N","xStreet":"Belleville St","countDirec":"NS","Month":10,"Year":2011,"peakHour":127}},
{"type":"Feature","geometry":{"type":"Point","coordinates":[-123.44579941699999,48.57559392400003]},"properties":{"id":20843,"countID":44,"onStreet":"West Saanich Rd","location":"N","xStreet":"Wallace Dr","countDirec":"NS","Month":10,"Year":2011,"peakHour":13}},
{"type":"Feature","geometry":{"type":"Point","coordinates":[-123.36285683699998,48.43500422200003]},"properties":{"id":20987,"countID":11,"onStreet":"Blanshard St","location":"S","xStreet":"Bay St","countDirec":"NS","Month":10,"Year":2011,"peakHour":62}},
{"type":"Feature","geometry":{"type":"Point","coordinates":[-123.37727128899996,48.457034287000056]},"properties":{"id":21082,"countID":31,"onStreet":"Lochside Regional Trail","location":"N","xStreet":"Switch Bridge","countDirec":"NS","Month":10,"Year":2011,"peakHour":205}},
{"type":"Feature","geometry":{"type":"Point","coordinates":[-123.37755967999999,48.45557769000004]},"properties":{"id":21083,"countID":4,"onStreet":"Galloping Goose Regional Trail","location":"S","xStreet":"Information Booth at Switch Bridge","countDirec":"NS","Month":10,"Year":2011,"peakHour":281}},
{"type":"Feature","geometry":{"type":"Point","coordinates":[-123.40032711099997,48.64379897800006]},"properties":{"id":21274,"countID":23,"onStreet":"Fifth St","location":"S","xStreet":"Ocean Ave","countDirec":"NS","Month":10,"Year":2012,"peakHour":25}},
{"type":"Feature","geometry":{"type":"Point","coordinates":[-123.38871336499994,48.43082210800003]},"properties":{"id":21275,"countID":3,"onStreet":"E&N Rail Trail","location":"N","xStreet":"Esquimalt Rd","countDirec":"NS","Month":10,"Year":2012,"peakHour":14}},
{"type":"Feature","geometry":{"type":"Point","coordinates":[-123.36883685199996,48.42103860100008]},"properties":{"id":21276,"countID":30,"onStreet":"Government St","location":"N","xStreet":"Belleville St","countDirec":"NS","Month":10,"Year":2012,"peakHour":155}},
{"type":"Feature","geometry":{"type":"Point","coordinates":[-123.39451077099994,48.45920884600008]},"properties":{"id":21281,"countID":6,"onStreet":"Interuban Rd","location":"N","xStreet":"Burnside Rd W","countDirec":"NS","Month":10,"Year":2012,"peakHour":62}},
{"type":"Feature","geometry":{"type":"Point","coordinates":[-123.33275729999997,48.468277681000075]},"properties":{"id":21433,"countID":34,"onStreet":"Shelbourne St","location":"S","xStreet":"McKenzie Ave","countDirec":"NS","Month":10,"Year":2012,"peakHour":33}},
{"type":"Feature","geometry":{"type":"Point","coordinates":[-123.44579941699999,48.57559392400003]},"properties":{"id":21434,"countID":44,"onStreet":"West Saanich Rd","location":"N","xStreet":"Wallace Dr","countDirec":"NS","Month":10,"Year":2012,"peakHour":19}},
{"type":"Feature","geometry":{"type":"Point","coordinates":[-123.36532232199994,48.43546488900006]},"properties":{"id":21663,"countID":10,"onStreet":"Douglas St","location":"S","xStreet":"Bay St","countDirec":"NS","Month":10,"Year":2012,"peakHour":60}},
{"type":"Feature","geometry":{"type":"Point","coordinates":[-123.36285683699998,48.43500422200003]},"properties":{"id":21674,"countID":11,"onStreet":"Blanshard St","location":"S","xStreet":"Bay St","countDirec":"NS","Month":10,"Year":2012,"peakHour":69}},
{"type":"Feature","geometry":{"type":"Point","coordinates":[-123.31568390899997,48.45844384000003]},"properties":{"id":21688,"countID":16,"onStreet":"Henderson Rd","location":"S","xStreet":"Cedar Hill Cross Rd","countDirec":"NS","Month":10,"Year":2012,"peakHour":246}},
{"type":"Feature","geometry":{"type":"Point","coordinates":[-123.36180267399999,48.50112326000004]},"properties":{"id":21689,"countID":22,"onStreet":"Lochside Dr","location":"S","xStreet":"Royal Oak Dr","countDirec":"NS","Month":10,"Year":2012,"peakHour":92}},
{"type":"Feature","geometry":{"type":"Point","coordinates":[-123.31447473299994,48.460206665000044]},"properties":{"id":21692,"countID":45,"onStreet":"University Dr","location":"S","xStreet":"Ring Rd","countDirec":"NS","Month":10,"Year":2012,"peakHour":247}},
{"type":"Feature","geometry":{"type":"Point","coordinates":[-123.36063761499997,48.47177904800003]},"properties":{"id":21840,"countID":49,"onStreet":"Lochside Regional Trail","location":"N","xStreet":"Cedar Hill Cross Rd","countDirec":"NS","Month":10,"Year":2012,"peakHour":119}},
{"type":"Feature","geometry":{"type":"Point","coordinates":[-123.36732099299996,48.43554077300007]},"properties":{"id":21847,"countID":9,"onStreet":"Government St","location":"S","xStreet":"Bay St","countDirec":"NS","Month":10,"Year":2012,"peakHour":68}},
{"type":"Feature","geometry":{"type":"Point","coordinates":[-123.41469284799996,48.51153867100004]},"properties":{"id":22027,"countID":25,"onStreet":"West Saanich Rd","location":"N","xStreet":"Interurban Rd","countDirec":"NS","Month":10,"Year":2012,"peakHour":32}},
{"type":"Feature","geometry":{"type":"Point","coordinates":[-123.37727128899996,48.457034287000056]},"properties":{"id":22028,"countID":31,"onStreet":"Lochside Regional Trail","location":"N","xStreet":"Switch Bridge","countDirec":"NS","Month":10,"Year":2012,"peakHour":253}},
{"type":"Feature","geometry":{"type":"Point","coordinates":[-123.41763092899998,48.43683759600003]},"properties":{"id":22029,"countID":33,"onStreet":"Admirals Rd","location":"S","xStreet":"Colville Rd","countDirec":"NS","Month":10,"Year":2012,"peakHour":44}},
{"type":"Feature","geometry":{"type":"Point","coordinates":[-123.37755967999999,48.45557769000004]},"properties":{"id":22030,"countID":4,"onStreet":"Galloping Goose Regional Trail","location":"S","xStreet":"Information Booth at Switch Bridge","countDirec":"NS","Month":10,"Year":2012,"peakHour":362}},
{"type":"Feature","geometry":{"type":"Point","coordinates":[-123.36143224399996,48.47028295900003]},"properties":{"id":22032,"countID":5,"onStreet":"Lochside Regional Trail","location":"S","xStreet":"McKenzie Ave","countDirec":"NS","Month":10,"Year":2012,"peakHour":172}},
{"type":"Feature","geometry":{"type":"Point","coordinates":[-123.31568390899997,48.45844384000003]},"properties":{"id":22891,"countID":16,"onStreet":"Henderson Rd","location":"S","xStreet":"Cedar Hill Cross Rd","countDirec":"NS","Month":5,"Year":2013,"peakHour":180}},
{"type":"Feature","geometry":{"type":"Point","coordinates":[-123.37727128899996,48.457034287000056]},"properties":{"id":22892,"countID":31,"onStreet":"Lochside Regional Trail","location":"N","xStreet":"Switch Bridge","countDirec":"NS","Month":5,"Year":2013,"peakHour":284}},
{"type":"Feature","geometry":{"type":"Point","coordinates":[-123.37755967999999,48.45557769000004]},"properties":{"id":22893,"countID":4,"onStreet":"Galloping Goose Regional Trail","location":"S","xStreet":"Information Booth at Switch Bridge","countDirec":"NS","Month":5,"Year":2013,"peakHour":428}},
{"type":"Feature","geometry":{"type":"Point","coordinates":[-123.31447473299994,48.460206665000044]},"properties":{"id":22894,"countID":45,"onStreet":"University Dr","location":"S","xStreet":"Ring Rd","countDirec":"NS","Month":5,"Year":2013,"peakHour":181}},
{"type":"Feature","geometry":{"type":"Point","coordinates":[-123.36732099299996,48.43554077300007]},"properties":{"id":22900,"countID":9,"onStreet":"Government St","location":"S","xStreet":"Bay St","countDirec":"NS","Month":5,"Year":2013,"peakHour":63}},
{"type":"Feature","geometry":{"type":"Point","coordinates":[-123.36883685199996,48.42103860100008]},"properties":{"id":23155,"countID":30,"onStreet":"Government St","location":"N","xStreet":"Belleville St","countDirec":"NS","Month":5,"Year":2013,"peakHour":167}},
{"type":"Feature","geometry":{"type":"Point","coordinates":[-123.41763092899998,48.43683759600003]},"properties":{"id":23156,"countID":33,"onStreet":"Admirals Rd","location":"S","xStreet":"Colville Rd","countDirec":"NS","Month":5,"Year":2013,"peakHour":46}},
{"type":"Feature","geometry":{"type":"Point","coordinates":[-123.33275729999997,48.468277681000075]},"properties":{"id":23157,"countID":34,"onStreet":"Shelbourne St","location":"S","xStreet":"McKenzie Ave","countDirec":"NS","Month":5,"Year":2013,"peakHour":35}},
{"type":"Feature","geometry":{"type":"Point","coordinates":[-123.38871336499994,48.43082210800003]},"properties":{"id":23225,"countID":3,"onStreet":"E&N Rail Trail","location":"N","xStreet":"Esquimalt Rd","countDirec":"NS","Month":5,"Year":2013,"peakHour":7}},
{"type":"Feature","geometry":{"type":"Point","coordinates":[-123.36532232199994,48.43546488900006]},"properties":{"id":23305,"countID":10,"onStreet":"Douglas St","location":"S","xStreet":"Bay St","countDirec":"NS","Month":5,"Year":2013,"peakHour":52}},
{"type":"Feature","geometry":{"type":"Point","coordinates":[-123.36285683699998,48.43500422200003]},"properties":{"id":23308,"countID":11,"onStreet":"Blanshard St","location":"S","xStreet":"Bay St","countDirec":"NS","Month":5,"Year":2013,"peakHour":60}},
{"type":"Feature","geometry":{"type":"Point","coordinates":[-123.36180267399999,48.50112326000004]},"properties":{"id":23311,"countID":22,"onStreet":"Lochside Dr","location":"S","xStreet":"Royal Oak Dr","countDirec":"NS","Month":5,"Year":2013,"peakHour":119}},
{"type":"Feature","geometry":{"type":"Point","coordinates":[-123.36285683699998,48.43500422200003]},"properties":{"id":24124,"countID":11,"onStreet":"Blanshard St","location":"S","xStreet":"Bay St","countDirec":"NS","Month":10,"Year":2013,"peakHour":44}},
{"type":"Feature","geometry":{"type":"Point","coordinates":[-123.36180267399999,48.50112326000004]},"properties":{"id":24145,"countID":22,"onStreet":"Lochside Dr","location":"S","xStreet":"Royal Oak Dr","countDirec":"NS","Month":10,"Year":2013,"peakHour":39}},
{"type":"Feature","geometry":{"type":"Point","coordinates":[-123.40032711099997,48.64379897800006]},"properties":{"id":24146,"countID":23,"onStreet":"Fifth St","location":"S","xStreet":"Ocean Ave","countDirec":"NS","Month":10,"Year":2013,"peakHour":11}},
{"type":"Feature","geometry":{"type":"Point","coordinates":[-123.33275729999997,48.468277681000075]},"properties":{"id":24147,"countID":34,"onStreet":"Shelbourne St","location":"S","xStreet":"McKenzie Ave","countDirec":"NS","Month":10,"Year":2013,"peakHour":29}},
{"type":"Feature","geometry":{"type":"Point","coordinates":[-123.31568390899997,48.45844384000003]},"properties":{"id":24503,"countID":16,"onStreet":"Henderson Rd","location":"S","xStreet":"Cedar Hill Cross Rd","countDirec":"NS","Month":10,"Year":2013,"peakHour":135}},
{"type":"Feature","geometry":{"type":"Point","coordinates":[-123.36883685199996,48.42103860100008]},"properties":{"id":24504,"countID":30,"onStreet":"Government St","location":"N","xStreet":"Belleville St","countDirec":"NS","Month":10,"Year":2013,"peakHour":78}},
{"type":"Feature","geometry":{"type":"Point","coordinates":[-123.31447473299994,48.460206665000044]},"properties":{"id":24505,"countID":45,"onStreet":"University Dr","location":"S","xStreet":"Ring Rd","countDirec":"NS","Month":10,"Year":2013,"peakHour":145}},
{"type":"Feature","geometry":{"type":"Point","coordinates":[-123.36143224399996,48.47028295900003]},"properties":{"id":24506,"countID":5,"onStreet":"Lochside Regional Trail","location":"S","xStreet":"McKenzie Ave","countDirec":"NS","Month":10,"Year":2013,"peakHour":113}},
{"type":"Feature","geometry":{"type":"Point","coordinates":[-123.36732099299996,48.43554077300007]},"properties":{"id":24512,"countID":9,"onStreet":"Government St","location":"S","xStreet":"Bay St","countDirec":"NS","Month":10,"Year":2013,"peakHour":45}},
{"type":"Feature","geometry":{"type":"Point","coordinates":[-123.36532232199994,48.43546488900006]},"properties":{"id":24729,"countID":10,"onStreet":"Douglas St","location":"S","xStreet":"Bay St","countDirec":"NS","Month":10,"Year":2013,"peakHour":35}},
{"type":"Feature","geometry":{"type":"Point","coordinates":[-123.38871336499994,48.43082210800003]},"properties":{"id":24980,"countID":3,"onStreet":"E&N Rail Trail","location":"N","xStreet":"Esquimalt Rd","countDirec":"NS","Month":10,"Year":2013,"peakHour":11}},
{"type":"Feature","geometry":{"type":"Point","coordinates":[-123.37727128899996,48.457034287000056]},"properties":{"id":24981,"countID":31,"onStreet":"Lochside Regional Trail","location":"N","xStreet":"Switch Bridge","countDirec":"NS","Month":10,"Year":2013,"peakHour":214}},
{"type":"Feature","geometry":{"type":"Point","coordinates":[-123.41763092899998,48.43683759600003]},"properties":{"id":24982,"countID":33,"onStreet":"Admirals Rd","location":"S","xStreet":"Colville Rd","countDirec":"NS","Month":10,"Year":2013,"peakHour":35}},
{"type":"Feature","geometry":{"type":"Point","coordinates":[-123.37755967999999,48.45557769000004]},"properties":{"id":24983,"countID":4,"onStreet":"Galloping Goose Regional Trail","location":"S","xStreet":"Information Booth at Switch Bridge","countDirec":"NS","Month":10,"Year":2013,"peakHour":320}},
{"type":"Feature","geometry":{"type":"Point","coordinates":[-123.38809107199995,48.46725218900008]},"properties":{"id":24984,"countID":47,"onStreet":"Glanford Ave","location":"N","xStreet":"McKenzie Ave","countDirec":"NS","Month":10,"Year":2013,"peakHour":14}},
{"type":"Feature","geometry":{"type":"Point","coordinates":[-123.36063761499997,48.47177904800003]},"properties":{"id":24985,"countID":49,"onStreet":"Lochside Regional Trail","location":"N","xStreet":"Cedar Hill Cross Rd","countDirec":"NS","Month":10,"Year":2013,"peakHour":76}},
{"type":"Feature","geometry":{"type":"Point","coordinates":[-123.33330532599996,48.44580724900004]},"properties":{"id":24986,"countID":54,"onStreet":"Shelbourne St","location":"N","xStreet":"Hillside Ave","countDirec":"NS","Month":10,"Year":2013,"peakHour":36}},
{"type":"Feature","geometry":{"type":"Point","coordinates":[-123.39451077099994,48.45920884600008]},"properties":{"id":24987,"countID":6,"onStreet":"Interuban Rd","location":"N","xStreet":"Burnside Rd W","countDirec":"NS","Month":10,"Year":2013,"peakHour":66}},
{"type":"Feature","geometry":{"type":"Point","coordinates":[-123.44579941699999,48.57559392400003]},"properties":{"id":25237,"countID":44,"onStreet":"West Saanich Rd","location":"N","xStreet":"Wallace Dr","countDirec":"NS","Month":10,"Year":2013,"peakHour":11}},
{"type":"Feature","geometry":{"type":"Point","coordinates":[-123.43149381699999,48.45175934700006]},"properties":{"id":25240,"countID":7,"onStreet":"E&N Rail Trail","location":"S","xStreet":"Portage Park Trail","countDirec":"NS","Month":10,"Year":2013,"peakHour":26}},
{"type":"Feature","geometry":{"type":"Point","coordinates":[-123.31568390899997,48.45844384000003]},"properties":{"id":26090,"countID":16,"onStreet":"Henderson Rd","location":"S","xStreet":"Cedar Hill Cross Rd","countDirec":"NS","Month":5,"Year":2014,"peakHour":114}},
{"type":"Feature","geometry":{"type":"Point","coordinates":[-123.36180267399999,48.50112326000004]},"properties":{"id":26091,"countID":22,"onStreet":"Lochside Dr","location":"S","xStreet":"Royal Oak Dr","countDirec":"NS","Month":5,"Year":2014,"peakHour":88}},
{"type":"Feature","geometry":{"type":"Point","coordinates":[-123.37727128899996,48.457034287000056]},"properties":{"id":26092,"countID":31,"onStreet":"Lochside Regional Trail","location":"N","xStreet":"Switch Bridge","countDirec":"NS","Month":5,"Year":2014,"peakHour":280}},
{"type":"Feature","geometry":{"type":"Point","coordinates":[-123.41763092899998,48.43683759600003]},"properties":{"id":26093,"countID":33,"onStreet":"Admirals Rd","location":"S","xStreet":"Colville Rd","countDirec":"NS","Month":5,"Year":2014,"peakHour":24}},
{"type":"Feature","geometry":{"type":"Point","coordinates":[-123.37755967999999,48.45557769000004]},"properties":{"id":26094,"countID":4,"onStreet":"Galloping Goose Regional Trail","location":"S","xStreet":"Information Booth at Switch Bridge","countDirec":"NS","Month":5,"Year":2014,"peakHour":411}},
{"type":"Feature","geometry":{"type":"Point","coordinates":[-123.31447473299994,48.460206665000044]},"properties":{"id":26095,"countID":45,"onStreet":"University Dr","location":"S","xStreet":"Ring Rd","countDirec":"NS","Month":5,"Year":2014,"peakHour":116}},
{"type":"Feature","geometry":{"type":"Point","coordinates":[-123.40032711099997,48.64379897800006]},"properties":{"id":26244,"countID":23,"onStreet":"Fifth St","location":"S","xStreet":"Ocean Ave","countDirec":"NS","Month":5,"Year":2014,"peakHour":4}},
{"type":"Feature","geometry":{"type":"Point","coordinates":[-123.36883685199996,48.42103860100008]},"properties":{"id":26245,"countID":30,"onStreet":"Government St","location":"N","xStreet":"Belleville St","countDirec":"NS","Month":5,"Year":2014,"peakHour":82}},
{"type":"Feature","geometry":{"type":"Point","coordinates":[-123.44579941699999,48.57559392400003]},"properties":{"id":26246,"countID":44,"onStreet":"West Saanich Rd","location":"N","xStreet":"Wallace Dr","countDirec":"NS","Month":5,"Year":2014,"peakHour":3}},
{"type":"Feature","geometry":{"type":"Point","coordinates":[-123.36143224399996,48.47028295900003]},"properties":{"id":26247,"countID":5,"onStreet":"Lochside Regional Trail","location":"S","xStreet":"McKenzie Ave","countDirec":"NS","Month":5,"Year":2014,"peakHour":119}},
{"type":"Feature","geometry":{"type":"Point","coordinates":[-123.36532232199994,48.43546488900006]},"properties":{"id":26583,"countID":10,"onStreet":"Douglas St","location":"S","xStreet":"Bay St","countDirec":"NS","Month":10,"Year":2014,"peakHour":48}},
{"type":"Feature","geometry":{"type":"Point","coordinates":[-123.36285683699998,48.43500422200003]},"properties":{"id":26587,"countID":11,"onStreet":"Blanshard St","location":"S","xStreet":"Bay St","countDirec":"NS","Month":10,"Year":2014,"peakHour":70}},
{"type":"Feature","geometry":{"type":"Point","coordinates":[-123.36883685199996,48.42103860100008]},"properties":{"id":26610,"countID":30,"onStreet":"Government St","location":"N","xStreet":"Belleville St","countDirec":"NS","Month":10,"Year":2014,"peakHour":156}},
{"type":"Feature","geometry":{"type":"Point","coordinates":[-123.36732099299996,48.43554077300007]},"properties":{"id":26629,"countID":9,"onStreet":"Government St","location":"S","xStreet":"Bay St","countDirec":"NS","Month":10,"Year":2014,"peakHour":66}},
{"type":"Feature","geometry":{"type":"Point","coordinates":[-123.41633158599996,48.66236781500004]},"properties":{"id":26806,"countID":24,"onStreet":"Lochside Regional Trail","location":"S","xStreet":"Ardwell Ave","countDirec":"NS","Month":10,"Year":2014,"peakHour":44}},
{"type":"Feature","geometry":{"type":"Point","coordinates":[-123.33330532599996,48.44580724900004]},"properties":{"id":26810,"countID":54,"onStreet":"Shelbourne St","location":"N","xStreet":"Hillside Ave","countDirec":"NS","Month":10,"Year":2014,"peakHour":37}},
{"type":"Feature","geometry":{"type":"Point","coordinates":[-123.41763092899998,48.43683759600003]},"properties":{"id":27130,"countID":33,"onStreet":"Admirals Rd","location":"S","xStreet":"Colville Rd","countDirec":"NS","Month":10,"Year":2014,"peakHour":36}},
{"type":"Feature","geometry":{"type":"Point","coordinates":[-123.38809107199995,48.46725218900008]},"properties":{"id":27131,"countID":47,"onStreet":"Glanford Ave","location":"N","xStreet":"McKenzie Ave","countDirec":"NS","Month":10,"Year":2014,"peakHour":21}},
{"type":"Feature","geometry":{"type":"Point","coordinates":[-123.31568390899997,48.45844384000003]},"properties":{"id":27285,"countID":16,"onStreet":"Henderson Rd","location":"S","xStreet":"Cedar Hill Cross Rd","countDirec":"NS","Month":10,"Year":2014,"peakHour":182}},
{"type":"Feature","geometry":{"type":"Point","coordinates":[-123.37727128899996,48.457034287000056]},"properties":{"id":27286,"countID":31,"onStreet":"Lochside Regional Trail","location":"N","xStreet":"Switch Bridge","countDirec":"NS","Month":10,"Year":2014,"peakHour":263}},
{"type":"Feature","geometry":{"type":"Point","coordinates":[-123.37755967999999,48.45557769000004]},"properties":{"id":27288,"countID":4,"onStreet":"Galloping Goose Regional Trail","location":"S","xStreet":"Information Booth at Switch Bridge","countDirec":"NS","Month":10,"Year":2014,"peakHour":366}},
{"type":"Feature","geometry":{"type":"Point","coordinates":[-123.31447473299994,48.460206665000044]},"properties":{"id":27289,"countID":45,"onStreet":"University Dr","location":"S","xStreet":"Ring Rd","countDirec":"NS","Month":10,"Year":2014,"peakHour":192}},
{"type":"Feature","geometry":{"type":"Point","coordinates":[-123.43149381699999,48.45175934700006]},"properties":{"id":27311,"countID":7,"onStreet":"E&N Rail Trail","location":"S","xStreet":"Portage Park Trail","countDirec":"NS","Month":10,"Year":2014,"peakHour":74}},
{"type":"Feature","geometry":{"type":"Point","coordinates":[-123.38293690399996,48.43761650300007]},"properties":{"id":27314,"countID":8,"onStreet":"Galloping Goose Regional Trail","location":"S","xStreet":"Selkirk Trestle","countDirec":"NS","Month":10,"Year":2014,"peakHour":348}},
{"type":"Feature","geometry":{"type":"Point","coordinates":[-123.33275729999997,48.468277681000075]},"properties":{"id":27593,"countID":34,"onStreet":"Shelbourne St","location":"S","xStreet":"McKenzie Ave","countDirec":"NS","Month":10,"Year":2014,"peakHour":34}},
{"type":"Feature","geometry":{"type":"Point","coordinates":[-123.36180267399999,48.50112326000004]},"properties":{"id":27754,"countID":22,"onStreet":"Lochside Dr","location":"S","xStreet":"Royal Oak Dr","countDirec":"NS","Month":10,"Year":2014,"peakHour":80}},
{"type":"Feature","geometry":{"type":"Point","coordinates":[-123.36143224399996,48.47028295900003]},"properties":{"id":27756,"countID":5,"onStreet":"Lochside Regional Trail","location":"S","xStreet":"McKenzie Ave","countDirec":"NS","Month":10,"Year":2014,"peakHour":168}},
{"type":"Feature","geometry":{"type":"Point","coordinates":[-123.36883685199996,48.42103860100008]},"properties":{"id":28448,"countID":30,"onStreet":"Government St","location":"N","xStreet":"Belleville St","countDirec":"NS","Month":5,"Year":2015,"peakHour":122}},
{"type":"Feature","geometry":{"type":"Point","coordinates":[-123.38871336499994,48.43082210800003]},"properties":{"id":28667,"countID":3,"onStreet":"E&N Rail Trail","location":"N","xStreet":"Esquimalt Rd","countDirec":"NS","Month":5,"Year":2015,"peakHour":4}},
{"type":"Feature","geometry":{"type":"Point","coordinates":[-123.36532232199994,48.43546488900006]},"properties":{"id":28841,"countID":10,"onStreet":"Douglas St","location":"S","xStreet":"Bay St","countDirec":"NS","Month":5,"Year":2015,"peakHour":39}},
{"type":"Feature","geometry":{"type":"Point","coordinates":[-123.31568390899997,48.45844384000003]},"properties":{"id":28846,"countID":16,"onStreet":"Henderson Rd","location":"S","xStreet":"Cedar Hill Cross Rd","countDirec":"NS","Month":5,"Year":2015,"peakHour":126}},
{"type":"Feature","geometry":{"type":"Point","coordinates":[-123.31447473299994,48.460206665000044]},"properties":{"id":28847,"countID":45,"onStreet":"University Dr","location":"S","xStreet":"Ring Rd","countDirec":"NS","Month":5,"Year":2015,"peakHour":115}},
{"type":"Feature","geometry":{"type":"Point","coordinates":[-123.36732099299996,48.43554077300007]},"properties":{"id":28865,"countID":9,"onStreet":"Government St","location":"S","xStreet":"Bay St","countDirec":"NS","Month":5,"Year":2015,"peakHour":43}},
{"type":"Feature","geometry":{"type":"Point","coordinates":[-123.35698388699996,48.42345927000008]},"properties":{"id":28959,"countID":14,"onStreet":"Vancouver St","location":"S","xStreet":"Fort St","countDirec":"NS","Month":5,"Year":2015,"peakHour":92}},
{"type":"Feature","geometry":{"type":"Point","coordinates":[-123.36180267399999,48.50112326000004]},"properties":{"id":28960,"countID":22,"onStreet":"Lochside Dr","location":"S","xStreet":"Royal Oak Dr","countDirec":"NS","Month":5,"Year":2015,"peakHour":85}},
{"type":"Feature","geometry":{"type":"Point","coordinates":[-123.33275729999997,48.468277681000075]},"properties":{"id":28961,"countID":34,"onStreet":"Shelbourne St","location":"S","xStreet":"McKenzie Ave","countDirec":"NS","Month":5,"Year":2015,"peakHour":29}},
{"type":"Feature","geometry":{"type":"Point","coordinates":[-123.36143224399996,48.47028295900003]},"properties":{"id":28962,"countID":5,"onStreet":"Lochside Regional Trail","location":"S","xStreet":"McKenzie Ave","countDirec":"NS","Month":5,"Year":2015,"peakHour":196}},
{"type":"Feature","geometry":{"type":"Point","coordinates":[-123.43149381699999,48.45175934700006]},"properties":{"id":28973,"countID":7,"onStreet":"E&N Rail Trail","location":"S","xStreet":"Portage Park Trail","countDirec":"NS","Month":5,"Year":2015,"peakHour":83}},
{"type":"Feature","geometry":{"type":"Point","coordinates":[-123.36285683699998,48.43500422200003]},"properties":{"id":29243,"countID":11,"onStreet":"Blanshard St","location":"S","xStreet":"Bay St","countDirec":"NS","Month":5,"Year":2015,"peakHour":48}},
{"type":"Feature","geometry":{"type":"Point","coordinates":[-123.41633158599996,48.66236781500004]},"properties":{"id":29403,"countID":24,"onStreet":"Lochside Regional Trail","location":"S","xStreet":"Ardwell Ave","countDirec":"NS","Month":5,"Year":2015,"peakHour":47}},
{"type":"Feature","geometry":{"type":"Point","coordinates":[-123.41763092899998,48.43683759600003]},"properties":{"id":29404,"countID":33,"onStreet":"Admirals Rd","location":"S","xStreet":"Colville Rd","countDirec":"NS","Month":5,"Year":2015,"peakHour":69}},
{"type":"Feature","geometry":{"type":"Point","coordinates":[-123.36532232199994,48.43546488900006]},"properties":{"id":29867,"countID":10,"onStreet":"Douglas St","location":"S","xStreet":"Bay St","countDirec":"NS","Month":10,"Year":2015,"peakHour":24}},
{"type":"Feature","geometry":{"type":"Point","coordinates":[-123.31568390899997,48.45844384000003]},"properties":{"id":29875,"countID":16,"onStreet":"Henderson Rd","location":"S","xStreet":"Cedar Hill Cross Rd","countDirec":"NS","Month":10,"Year":2015,"peakHour":224}},
{"type":"Feature","geometry":{"type":"Point","coordinates":[-123.31447473299994,48.460206665000044]},"properties":{"id":29876,"countID":45,"onStreet":"University Dr","location":"S","xStreet":"Ring Rd","countDirec":"NS","Month":10,"Year":2015,"peakHour":226}},
{"type":"Feature","geometry":{"type":"Point","coordinates":[-123.43149381699999,48.45175934700006]},"properties":{"id":29884,"countID":7,"onStreet":"E&N Rail Trail","location":"S","xStreet":"Portage Park Trail","countDirec":"NS","Month":10,"Year":2015,"peakHour":94}},
{"type":"Feature","geometry":{"type":"Point","coordinates":[-123.36989579599998,48.425532013000065]},"properties":{"id":30083,"countID":1,"onStreet":"Wharf St","location":"N","xStreet":"Fort St","countDirec":"NS","Month":10,"Year":2015,"peakHour":207}},
{"type":"Feature","geometry":{"type":"Point","coordinates":[-123.36063761499997,48.47177904800003]},"properties":{"id":30088,"countID":49,"onStreet":"Lochside Regional Trail","location":"N","xStreet":"Cedar Hill Cross Rd","countDirec":"NS","Month":10,"Year":2015,"peakHour":67}},
{"type":"Feature","geometry":{"type":"Point","coordinates":[-123.33298717799994,48.45890960400004]},"properties":{"id":30182,"countID":36,"onStreet":"Shelbourne St","location":"N","xStreet":"Pear St","countDirec":"NS","Month":10,"Year":2015,"peakHour":20}},
{"type":"Feature","geometry":{"type":"Point","coordinates":[-123.36143224399996,48.47028295900003]},"properties":{"id":30183,"countID":5,"onStreet":"Lochside Regional Trail","location":"S","xStreet":"McKenzie Ave","countDirec":"NS","Month":10,"Year":2015,"peakHour":101}},
{"type":"Feature","geometry":{"type":"Point","coordinates":[-123.33275729999997,48.468277681000075]},"properties":{"id":30319,"countID":34,"onStreet":"Shelbourne St","location":"S","xStreet":"McKenzie Ave","countDirec":"NS","Month":10,"Year":2015,"peakHour":18}},
{"type":"Feature","geometry":{"type":"Point","coordinates":[-123.36989579599998,48.425532013000065]},"properties":{"id":30513,"countID":1,"onStreet":"Wharf St","location":"N","xStreet":"Fort St","countDirec":"NS","Month":5,"Year":2016,"peakHour":244}},
{"type":"Feature","geometry":{"type":"Point","coordinates":[-123.38871336499994,48.43082210800003]},"properties":{"id":30526,"countID":3,"onStreet":"E&N Rail Trail","location":"N","xStreet":"Esquimalt Rd","countDirec":"NS","Month":5,"Year":2016,"peakHour":61}},
{"type":"Feature","geometry":{"type":"Point","coordinates":[-123.36303729399998,48.46796744800008]},"properties":{"id":30527,"countID":48,"onStreet":"Lochside Regional Trail","location":"S","xStreet":"Quadra St","countDirec":"NS","Month":5,"Year":2016,"peakHour":167}},
{"type":"Feature","geometry":{"type":"Point","coordinates":[-123.36143224399996,48.47028295900003]},"properties":{"id":30644,"countID":5,"onStreet":"Lochside Regional Trail","location":"S","xStreet":"McKenzie Ave","countDirec":"NS","Month":5,"Year":2016,"peakHour":172}},
{"type":"Feature","geometry":{"type":"Point","coordinates":[-123.40032711099997,48.64379897800006]},"properties":{"id":30836,"countID":23,"onStreet":"Fifth St","location":"S","xStreet":"Ocean Ave","countDirec":"NS","Month":5,"Year":2016,"peakHour":59}},
{"type":"Feature","geometry":{"type":"Point","coordinates":[-123.33298717799994,48.45890960400004]},"properties":{"id":30837,"countID":36,"onStreet":"Shelbourne St","location":"N","xStreet":"Pear St","countDirec":"NS","Month":5,"Year":2016,"peakHour":21}},
{"type":"Feature","geometry":{"type":"Point","coordinates":[-123.38809107199995,48.46725218900008]},"properties":{"id":30838,"countID":47,"onStreet":"Glanford Ave","location":"N","xStreet":"McKenzie Ave","countDirec":"NS","Month":5,"Year":2016,"peakHour":21}},
{"type":"Feature","geometry":{"type":"Point","coordinates":[-123.33330532599996,48.44580724900004]},"properties":{"id":30843,"countID":54,"onStreet":"Shelbourne St","location":"N","xStreet":"Hillside Ave","countDirec":"NS","Month":5,"Year":2016,"peakHour":53}},
{"type":"Feature","geometry":{"type":"Point","coordinates":[-123.35413739399996,48.42312659400005]},"properties":{"id":30956,"countID":13,"onStreet":"Cook St","location":"S","xStreet":"Fort St","countDirec":"NS","Month":5,"Year":2016,"peakHour":72}},
{"type":"Feature","geometry":{"type":"Point","coordinates":[-123.35698388699996,48.42345927000008]},"properties":{"id":30957,"countID":14,"onStreet":"Vancouver St","location":"S","xStreet":"Fort St","countDirec":"NS","Month":5,"Year":2016,"peakHour":95}},
{"type":"Feature","geometry":{"type":"Point","coordinates":[-123.43149381699999,48.45175934700006]},"properties":{"id":30968,"countID":7,"onStreet":"E&N Rail Trail","location":"S","xStreet":"Portage Park Trail","countDirec":"NS","Month":5,"Year":2016,"peakHour":167}},
{"type":"Feature","geometry":{"type":"Point","coordinates":[-123.38293690399996,48.43761650300007]},"properties":{"id":30971,"countID":8,"onStreet":"Galloping Goose Regional Trail","location":"S","xStreet":"Selkirk Trestle","countDirec":"NS","Month":5,"Year":2016,"peakHour":332}},
{"type":"Feature","geometry":{"type":"Point","coordinates":[-123.36180267399999,48.50112326000004]},"properties":{"id":31174,"countID":22,"onStreet":"Lochside Dr","location":"S","xStreet":"Royal Oak Dr","countDirec":"NS","Month":5,"Year":2016,"peakHour":68}},
{"type":"Feature","geometry":{"type":"Point","coordinates":[-123.31568390899997,48.45844384000003]},"properties":{"id":31500,"countID":16,"onStreet":"Henderson Rd","location":"S","xStreet":"Cedar Hill Cross Rd","countDirec":"NS","Month":10,"Year":2016,"peakHour":186}},
{"type":"Feature","geometry":{"type":"Point","coordinates":[-123.36180267399999,48.50112326000004]},"properties":{"id":31501,"countID":22,"onStreet":"Lochside Dr","location":"S","xStreet":"Royal Oak Dr","countDirec":"NS","Month":10,"Year":2016,"peakHour":56}},
{"type":"Feature","geometry":{"type":"Point","coordinates":[-123.37727128899996,48.457034287000056]},"properties":{"id":31502,"countID":31,"onStreet":"Lochside Regional Trail","location":"N","xStreet":"Switch Bridge","countDirec":"NS","Month":10,"Year":2016,"peakHour":222}},
{"type":"Feature","geometry":{"type":"Point","coordinates":[-123.37755967999999,48.45557769000004]},"properties":{"id":31503,"countID":4,"onStreet":"Galloping Goose Regional Trail","location":"S","xStreet":"Information Booth at Switch Bridge","countDirec":"NS","Month":10,"Year":2016,"peakHour":306}},
{"type":"Feature","geometry":{"type":"Point","coordinates":[-123.31447473299994,48.460206665000044]},"properties":{"id":31504,"countID":45,"onStreet":"University Dr","location":"S","xStreet":"Ring Rd","countDirec":"NS","Month":10,"Year":2016,"peakHour":183}},
{"type":"Feature","geometry":{"type":"Point","coordinates":[-123.36143224399996,48.47028295900003]},"properties":{"id":31505,"countID":5,"onStreet":"Lochside Regional Trail","location":"S","xStreet":"McKenzie Ave","countDirec":"NS","Month":10,"Year":2016,"peakHour":143}},
{"type":"Feature","geometry":{"type":"Point","coordinates":[-123.41633158599996,48.66236781500004]},"properties":{"id":31629,"countID":24,"onStreet":"Lochside Regional Trail","location":"S","xStreet":"Ardwell Ave","countDirec":"NS","Month":10,"Year":2016,"peakHour":42}},
{"type":"Feature","geometry":{"type":"Point","coordinates":[-123.41763092899998,48.43683759600003]},"properties":{"id":31631,"countID":33,"onStreet":"Admirals Rd","location":"S","xStreet":"Colville Rd","countDirec":"NS","Month":10,"Year":2016,"peakHour":68}},
{"type":"Feature","geometry":{"type":"Point","coordinates":[-123.36989579599998,48.425532013000065]},"properties":{"id":31796,"countID":1,"onStreet":"Wharf St","location":"N","xStreet":"Fort St","countDirec":"NS","Month":10,"Year":2016,"peakHour":251}},
{"type":"Feature","geometry":{"type":"Point","coordinates":[-123.38809107199995,48.46725218900008]},"properties":{"id":31808,"countID":47,"onStreet":"Glanford Ave","location":"N","xStreet":"McKenzie Ave","countDirec":"NS","Month":10,"Year":2016,"peakHour":19}},
{"type":"Feature","geometry":{"type":"Point","coordinates":[-123.43149381699999,48.45175934700006]},"properties":{"id":31817,"countID":7,"onStreet":"E&N Rail Trail","location":"S","xStreet":"Portage Park Trail","countDirec":"NS","Month":10,"Year":2016,"peakHour":104}},
{"type":"Feature","geometry":{"type":"Point","coordinates":[-123.33298717799994,48.45890960400004]},"properties":{"id":31940,"countID":36,"onStreet":"Shelbourne St","location":"N","xStreet":"Pear St","countDirec":"NS","Month":10,"Year":2016,"peakHour":25}},
{"type":"Feature","geometry":{"type":"Point","coordinates":[-123.36063761499997,48.47177904800003]},"properties":{"id":31942,"countID":49,"onStreet":"Lochside Regional Trail","location":"N","xStreet":"Cedar Hill Cross Rd","countDirec":"NS","Month":10,"Year":2016,"peakHour":59}},
{"type":"Feature","geometry":{"type":"Point","coordinates":[-123.33275729999997,48.468277681000075]},"properties":{"id":32136,"countID":34,"onStreet":"Shelbourne St","location":"S","xStreet":"McKenzie Ave","countDirec":"NS","Month":10,"Year":2016,"peakHour":23}},
{"type":"Feature","geometry":{"type":"Point","coordinates":[-123.33330532599996,48.44580724900004]},"properties":{"id":32139,"countID":54,"onStreet":"Shelbourne St","location":"N","xStreet":"Hillside Ave","countDirec":"NS","Month":10,"Year":2016,"peakHour":29}},
{"type":"Feature","geometry":{"type":"Point","coordinates":[-123.36082883499995,48.42765657900003]},"properties":{"id":44264,"countID":28,"onStreet":"Pandora St","location":"E","xStreet":"Blanshard St","countDirec":"EW","Month":10,"Year":2011,"peakHour":55}},
{"type":"Feature","geometry":{"type":"Point","coordinates":[-123.36082883499995,48.42765657900003]},"properties":{"id":44596,"countID":28,"onStreet":"Pandora St","location":"E","xStreet":"Blanshard St","countDirec":"EW","Month":10,"Year":2012,"peakHour":82}},
{"type":"Feature","geometry":{"type":"Point","coordinates":[-123.36082883499995,48.42765657900003]},"properties":{"id":46205,"countID":28,"onStreet":"Pandora St","location":"E","xStreet":"Blanshard St","countDirec":"EW","Month":5,"Year":2013,"peakHour":102}},
{"type":"Feature","geometry":{"type":"Point","coordinates":[-123.36082883499995,48.42765657900003]},"properties":{"id":47789,"countID":28,"onStreet":"Pandora St","location":"E","xStreet":"Blanshard St","countDirec":"EW","Month":10,"Year":2013,"peakHour":46}},
{"type":"Feature","geometry":{"type":"Point","coordinates":[-123.36082883499995,48.42765657900003]},"properties":{"id":49820,"countID":28,"onStreet":"Pandora St","location":"E","xStreet":"Blanshard St","countDirec":"EW","Month":10,"Year":2014,"peakHour":79}},
{"type":"Feature","geometry":{"type":"Point","coordinates":[-123.36082883499995,48.42765657900003]},"properties":{"id":51647,"countID":28,"onStreet":"Pandora St","location":"E","xStreet":"Blanshard St","countDirec":"EW","Month":5,"Year":2015,"peakHour":93}},
{"type":"Feature","geometry":{"type":"Point","coordinates":[-123.35286672199999,48.42713086600003]},"properties":{"id":51649,"countID":52,"onStreet":"Pandora Ave","location":"E","xStreet":"Cook St","countDirec":"EW","Month":5,"Year":2015,"peakHour":60}},
{"type":"Feature","geometry":{"type":"Point","coordinates":[-123.36082883499995,48.42765657900003]},"properties":{"id":54793,"countID":28,"onStreet":"Pandora St","location":"E","xStreet":"Blanshard St","countDirec":"EW","Month":10,"Year":2016,"peakHour":72}},
{"type":"Feature","geometry":{"type":"Point","coordinates":[-123.36989579599998,48.425532013000065]},"properties":{"id":55579,"countID":1,"onStreet":"Wharf St","location":"N","xStreet":"Fort St","countDirec":"NS","Month":10,"Year":2017,"peakHour":188}},
{"type":"Feature","geometry":{"type":"Point","coordinates":[-123.37208228399999,48.42804025500004]},"properties":{"id":55599,"countID":2,"onStreet":"Johnson St Bridge","location":"W","xStreet":"Wharf St","countDirec":"EW","Month":10,"Year":2017,"peakHour":384}},
{"type":"Feature","geometry":{"type":"Point","coordinates":[-123.38871336499994,48.43082210800003]},"properties":{"id":55619,"countID":3,"onStreet":"E&N Rail Trail","location":"N","xStreet":"Esquimalt Rd","countDirec":"NS","Month":10,"Year":2017,"peakHour":45}},
{"type":"Feature","geometry":{"type":"Point","coordinates":[-123.37755967999999,48.45557769000004]},"properties":{"id":55639,"countID":4,"onStreet":"Galloping Goose Regional Trail","location":"S","xStreet":"Information Booth at Switch Bridge","countDirec":"NS","Month":10,"Year":2017,"peakHour":271}},
{"type":"Feature","geometry":{"type":"Point","coordinates":[-123.36143224399996,48.47028295900003]},"properties":{"id":55659,"countID":5,"onStreet":"Lochside Regional Trail","location":"S","xStreet":"McKenzie Ave","countDirec":"NS","Month":10,"Year":2017,"peakHour":83}},
{"type":"Feature","geometry":{"type":"Point","coordinates":[-123.39451077099994,48.45920884600008]},"properties":{"id":55679,"countID":6,"onStreet":"Interuban Rd","location":"N","xStreet":"Burnside Rd W","countDirec":"NS","Month":10,"Year":2017,"peakHour":40}},
{"type":"Feature","geometry":{"type":"Point","coordinates":[-123.43149381699999,48.45175934700006]},"properties":{"id":55699,"countID":7,"onStreet":"E&N Rail Trail","location":"S","xStreet":"Portage Park Trail","countDirec":"NS","Month":10,"Year":2017,"peakHour":98}},
{"type":"Feature","geometry":{"type":"Point","coordinates":[-123.38293690399996,48.43761650300007]},"properties":{"id":55719,"countID":8,"onStreet":"Galloping Goose Regional Trail","location":"S","xStreet":"Selkirk Trestle","countDirec":"NS","Month":10,"Year":2017,"peakHour":314}},
{"type":"Feature","geometry":{"type":"Point","coordinates":[-123.33922351199999,48.43614739000003]},"properties":{"id":55739,"countID":12,"onStreet":"Haultain St","location":"W","xStreet":"Forbes St","countDirec":"EW","Month":10,"Year":2017,"peakHour":75}},
{"type":"Feature","geometry":{"type":"Point","coordinates":[-123.35413739399996,48.42312659400005]},"properties":{"id":55759,"countID":13,"onStreet":"Cook St","location":"S","xStreet":"Fort St","countDirec":"NS","Month":10,"Year":2017,"peakHour":46}},
{"type":"Feature","geometry":{"type":"Point","coordinates":[-123.35698388699996,48.42345927000008]},"properties":{"id":55779,"countID":14,"onStreet":"Vancouver St","location":"S","xStreet":"Fort St","countDirec":"NS","Month":10,"Year":2017,"peakHour":83}},
{"type":"Feature","geometry":{"type":"Point","coordinates":[-123.36282109999996,48.41985707500004]},"properties":{"id":55799,"countID":15,"onStreet":"Humboldt St","location":"E","xStreet":"Blanshard St","countDirec":"EW","Month":10,"Year":2017,"peakHour":32}},
{"type":"Feature","geometry":{"type":"Point","coordinates":[-123.31568390899997,48.45844384000003]},"properties":{"id":55819,"countID":16,"onStreet":"Henderson Rd","location":"S","xStreet":"Cedar Hill Cross Rd","countDirec":"NS","Month":10,"Year":2017,"peakHour":149}},
{"type":"Feature","geometry":{"type":"Point","coordinates":[-123.31869200199998,48.46852549000005]},"properties":{"id":55839,"countID":17,"onStreet":"McKenzie Ave","location":"E","xStreet":"Gordon Head Rd","countDirec":"EW","Month":10,"Year":2017,"peakHour":74}},
{"type":"Feature","geometry":{"type":"Point","coordinates":[-123.32230939799996,48.42645981600003]},"properties":{"id":55859,"countID":18,"onStreet":"Oak Bay Ave","location":"E","xStreet":"Foul Bay Rd","countDirec":"EW","Month":10,"Year":2017,"peakHour":35}},
{"type":"Feature","geometry":{"type":"Point","coordinates":[-123.35749773599997,48.40790452600004]},"properties":{"id":55879,"countID":19,"onStreet":"Dallas Rd","location":"E","xStreet":"Cook St","countDirec":"EW","Month":10,"Year":2017,"peakHour":18}},
{"type":"Feature","geometry":{"type":"Point","coordinates":[-123.33605661499996,48.42696300100005]},"properties":{"id":55899,"countID":20,"onStreet":"Fort St","location":"N","xStreet":"Oak Bay Ave","countDirec":"EW","Month":10,"Year":2017,"peakHour":47}},
{"type":"Feature","geometry":{"type":"Point","coordinates":[-123.36180267399999,48.50112326000004]},"properties":{"id":55911,"countID":22,"onStreet":"Lochside Dr","location":"S","xStreet":"Royal Oak Dr","countDirec":"NS","Month":10,"Year":2017,"peakHour":48}},
{"type":"Feature","geometry":{"type":"Point","coordinates":[-123.41469284799996,48.51153867100004]},"properties":{"id":55931,"countID":25,"onStreet":"West Saanich Rd","location":"N","xStreet":"Interurban Rd","countDirec":"NS","Month":10,"Year":2017,"peakHour":12}},
{"type":"Feature","geometry":{"type":"Point","coordinates":[-123.35445430899995,48.41958585700007]},"properties":{"id":55951,"countID":27,"onStreet":"Richardson St","location":"E","xStreet":"Cook St","countDirec":"EW","Month":10,"Year":2017,"peakHour":63}},
{"type":"Feature","geometry":{"type":"Point","coordinates":[-123.36082883499995,48.42765657900003]},"properties":{"id":55971,"countID":28,"onStreet":"Pandora St","location":"E","xStreet":"Blanshard St","countDirec":"EW","Month":10,"Year":2017,"peakHour":147}},
{"type":"Feature","geometry":{"type":"Point","coordinates":[-123.36092180999998,48.42676189800005]},"properties":{"id":55991,"countID":29,"onStreet":"Johnson St","location":"E","xStreet":"Blanshard St","countDirec":"EW","Month":10,"Year":2017,"peakHour":49}},
{"type":"Feature","geometry":{"type":"Point","coordinates":[-123.37727128899996,48.457034287000056]},"properties":{"id":56011,"countID":31,"onStreet":"Lochside Regional Trail","location":"N","xStreet":"Switch Bridge","countDirec":"NS","Month":10,"Year":2017,"peakHour":143}},
{"type":"Feature","geometry":{"type":"Point","coordinates":[-123.37839444499997,48.45629315900004]},"properties":{"id":56031,"countID":32,"onStreet":"Galloping Goose Regional Trail","location":"N","xStreet":"Crease Rd","countDirec":"EW","Month":10,"Year":2017,"peakHour":146}},
{"type":"Feature","geometry":{"type":"Point","coordinates":[-123.41763092899998,48.43683759600003]},"properties":{"id":56051,"countID":33,"onStreet":"Admirals Rd","location":"S","xStreet":"Colville Rd","countDirec":"NS","Month":10,"Year":2017,"peakHour":93}},
{"type":"Feature","geometry":{"type":"Point","coordinates":[-123.33275729999997,48.468277681000075]},"properties":{"id":56059,"countID":34,"onStreet":"Shelbourne St","location":"S","xStreet":"McKenzie Ave","countDirec":"NS","Month":10,"Year":2017,"peakHour":25}},
{"type":"Feature","geometry":{"type":"Point","coordinates":[-123.33140648399996,48.468595976000074]},"properties":{"id":56071,"countID":35,"onStreet":"McKenzie Ave","location":"E","xStreet":"Shelbourne St","countDirec":"EW","Month":10,"Year":2017,"peakHour":47}},
{"type":"Feature","geometry":{"type":"Point","coordinates":[-123.33298717799994,48.45890960400004]},"properties":{"id":56091,"countID":36,"onStreet":"Shelbourne St","location":"N","xStreet":"Pear St","countDirec":"NS","Month":10,"Year":2017,"peakHour":19}},
{"type":"Feature","geometry":{"type":"Point","coordinates":[-123.49651841099995,48.447818217000076]},"properties":{"id":56111,"countID":38,"onStreet":"Goldstream Ave","location":"W","xStreet":"Veterans Memorial Pky","countDirec":"EW","Month":10,"Year":2017,"peakHour":11}},
{"type":"Feature","geometry":{"type":"Point","coordinates":[-123.46834573999996,48.44551078400008]},"properties":{"id":56131,"countID":39,"onStreet":"Wale Rd","location":"W","xStreet":"Island Hwy","countDirec":"EW","Month":10,"Year":2017,"peakHour":18}},
{"type":"Feature","geometry":{"type":"Point","coordinates":[-123.40729603799997,48.42964775100006]},"properties":{"id":56151,"countID":40,"onStreet":"Esquimalt Rd","location":"W","xStreet":"Lampson St","countDirec":"EW","Month":10,"Year":2017,"peakHour":34}},
{"type":"Feature","geometry":{"type":"Point","coordinates":[-123.42401988499995,48.45064374800006]},"properties":{"id":56171,"countID":41,"onStreet":"Craigflower Rd","location":"E","xStreet":"Admirals Rd","countDirec":"EW","Month":10,"Year":2017,"peakHour":20}},
{"type":"Feature","geometry":{"type":"Point","coordinates":[-123.72342415699995,48.377725059000056]},"properties":{"id":56179,"countID":42,"onStreet":"Sooke Rd","location":"N","xStreet":"Otter Point Rd","countDirec":"EW","Month":10,"Year":2017,"peakHour":4}},
{"type":"Feature","geometry":{"type":"Point","coordinates":[-123.45482807499997,48.460937873000034]},"properties":{"id":56191,"countID":43,"onStreet":"Galloping Goose Regional Trail","location":"S","xStreet":"E&N Rail Trail","countDirec":"EW","Month":10,"Year":2017,"peakHour":108}},
{"type":"Feature","geometry":{"type":"Point","coordinates":[-123.44579941699999,48.57559392400003]},"properties":{"id":56211,"countID":44,"onStreet":"West Saanich Rd","location":"N","xStreet":"Wallace Dr","countDirec":"NS","Month":10,"Year":2017,"peakHour":4}},
{"type":"Feature","geometry":{"type":"Point","coordinates":[-123.31447473299994,48.460206665000044]},"properties":{"id":56231,"countID":45,"onStreet":"University Dr","location":"S","xStreet":"Ring Rd","countDirec":"NS","Month":10,"Year":2017,"peakHour":157}},
{"type":"Feature","geometry":{"type":"Point","coordinates":[-123.70094830699998,48.38740964300007]},"properties":{"id":56251,"countID":46,"onStreet":"Sooke Rd","location":"W","xStreet":"Sooke River Rd","countDirec":"EW","Month":10,"Year":2017,"peakHour":6}},
{"type":"Feature","geometry":{"type":"Point","coordinates":[-123.36063761499997,48.47177904800003]},"properties":{"id":56263,"countID":49,"onStreet":"Lochside Regional Trail","location":"N","xStreet":"Cedar Hill Cross Rd","countDirec":"NS","Month":10,"Year":2017,"peakHour":42}},
{"type":"Feature","geometry":{"type":"Point","coordinates":[-123.35739819599996,48.423781673000065]},"properties":{"id":56271,"countID":50,"onStreet":"Fort St","location":"W","xStreet":"Vancouver St","countDirec":"EW","Month":10,"Year":2017,"peakHour":48}},
{"type":"Feature","geometry":{"type":"Point","coordinates":[-123.35286672199999,48.42713086600003]},"properties":{"id":56283,"countID":52,"onStreet":"Pandora Ave","location":"E","xStreet":"Cook St","countDirec":"EW","Month":10,"Year":2017,"peakHour":61}},
{"type":"Feature","geometry":{"type":"Point","coordinates":[-123.35497457499997,48.41795433200008]},"properties":{"id":56303,"countID":53,"onStreet":"Fairfield Rd","location":"E","xStreet":"Cook St","countDirec":"EW","Month":10,"Year":2017,"peakHour":31}},
{"type":"Feature","geometry":{"type":"Point","coordinates":[-123.35578097299998,48.430459314000075]},"properties":{"id":56323,"countID":55,"onStreet":"Vancouver St","location":"S","xStreet":"Caledonia Ave","countDirec":"NS","Month":10,"Year":2017,"peakHour":111}},
{"type":"Feature","geometry":{"type":"Point","coordinates":[-123.35289341099997,48.43031195700007]},"properties":{"id":56343,"countID":56,"onStreet":"Cook St","location":"S","xStreet":"Caledonia Ave","countDirec":"NS","Month":10,"Year":2017,"peakHour":36}},
{"type":"Feature","geometry":{"type":"Point","coordinates":[-123.36989579599998,48.425532013000065]},"properties":{"id":56568,"countID":1,"onStreet":"Wharf St","location":"N","xStreet":"Fort St","countDirec":"NS","Month":5,"Year":2018,"peakHour":174}},
{"type":"Feature","geometry":{"type":"Point","coordinates":[-123.37208228399999,48.42804025500004]},"properties":{"id":56588,"countID":2,"onStreet":"Johnson St Bridge","location":"W","xStreet":"Wharf St","countDirec":"EW","Month":5,"Year":2018,"peakHour":404}},
{"type":"Feature","geometry":{"type":"Point","coordinates":[-123.38871336499994,48.43082210800003]},"properties":{"id":56608,"countID":3,"onStreet":"E&N Rail Trail","location":"N","xStreet":"Esquimalt Rd","countDirec":"NS","Month":5,"Year":2018,"peakHour":108}},
{"type":"Feature","geometry":{"type":"Point","coordinates":[-123.37755967999999,48.45557769000004]},"properties":{"id":56628,"countID":4,"onStreet":"Galloping Goose Regional Trail","location":"S","xStreet":"Information Booth at Switch Bridge","countDirec":"NS","Month":5,"Year":2018,"peakHour":247}},
{"type":"Feature","geometry":{"type":"Point","coordinates":[-123.36143224399996,48.47028295900003]},"properties":{"id":56648,"countID":5,"onStreet":"Lochside Regional Trail","location":"S","xStreet":"McKenzie Ave","countDirec":"NS","Month":5,"Year":2018,"peakHour":198}},
{"type":"Feature","geometry":{"type":"Point","coordinates":[-123.39451077099994,48.45920884600008]},"properties":{"id":56668,"countID":6,"onStreet":"Interuban Rd","location":"N","xStreet":"Burnside Rd W","countDirec":"NS","Month":5,"Year":2018,"peakHour":64}},
{"type":"Feature","geometry":{"type":"Point","coordinates":[-123.43149381699999,48.45175934700006]},"properties":{"id":56676,"countID":7,"onStreet":"E&N Rail Trail","location":"S","xStreet":"Portage Park Trail","countDirec":"NS","Month":5,"Year":2018,"peakHour":266}},
{"type":"Feature","geometry":{"type":"Point","coordinates":[-123.38293690399996,48.43761650300007]},"properties":{"id":56696,"countID":8,"onStreet":"Galloping Goose Regional Trail","location":"S","xStreet":"Selkirk Trestle","countDirec":"NS","Month":5,"Year":2018,"peakHour":564}},
{"type":"Feature","geometry":{"type":"Point","coordinates":[-123.36732099299996,48.43554077300007]},"properties":{"id":56716,"countID":9,"onStreet":"Government St","location":"S","xStreet":"Bay St","countDirec":"NS","Month":5,"Year":2018,"peakHour":40}},
{"type":"Feature","geometry":{"type":"Point","coordinates":[-123.36532232199994,48.43546488900006]},"properties":{"id":56736,"countID":10,"onStreet":"Douglas St","location":"S","xStreet":"Bay St","countDirec":"NS","Month":5,"Year":2018,"peakHour":34}},
{"type":"Feature","geometry":{"type":"Point","coordinates":[-123.36285683699998,48.43500422200003]},"properties":{"id":56756,"countID":11,"onStreet":"Blanshard St","location":"S","xStreet":"Bay St","countDirec":"NS","Month":5,"Year":2018,"peakHour":32}},
{"type":"Feature","geometry":{"type":"Point","coordinates":[-123.33922351199999,48.43614739000003]},"properties":{"id":56776,"countID":12,"onStreet":"Haultain St","location":"W","xStreet":"Forbes St","countDirec":"EW","Month":5,"Year":2018,"peakHour":156}},
{"type":"Feature","geometry":{"type":"Point","coordinates":[-123.35413739399996,48.42312659400005]},"properties":{"id":56796,"countID":13,"onStreet":"Cook St","location":"S","xStreet":"Fort St","countDirec":"NS","Month":5,"Year":2018,"peakHour":83}},
{"type":"Feature","geometry":{"type":"Point","coordinates":[-123.35698388699996,48.42345927000008]},"properties":{"id":56816,"countID":14,"onStreet":"Vancouver St","location":"S","xStreet":"Fort St","countDirec":"NS","Month":5,"Year":2018,"peakHour":117}},
{"type":"Feature","geometry":{"type":"Point","coordinates":[-123.36282109999996,48.41985707500004]},"properties":{"id":56836,"countID":15,"onStreet":"Humboldt St","location":"E","xStreet":"Blanshard St","countDirec":"EW","Month":5,"Year":2018,"peakHour":70}},
{"type":"Feature","geometry":{"type":"Point","coordinates":[-123.31568390899997,48.45844384000003]},"properties":{"id":56856,"countID":16,"onStreet":"Henderson Rd","location":"S","xStreet":"Cedar Hill Cross Rd","countDirec":"NS","Month":5,"Year":2018,"peakHour":161}},
{"type":"Feature","geometry":{"type":"Point","coordinates":[-123.31869200199998,48.46852549000005]},"properties":{"id":56876,"countID":17,"onStreet":"McKenzie Ave","location":"E","xStreet":"Gordon Head Rd","countDirec":"EW","Month":5,"Year":2018,"peakHour":40}},
{"type":"Feature","geometry":{"type":"Point","coordinates":[-123.32230939799996,48.42645981600003]},"properties":{"id":56888,"countID":18,"onStreet":"Oak Bay Ave","location":"E","xStreet":"Foul Bay Rd","countDirec":"EW","Month":5,"Year":2018,"peakHour":49}},
{"type":"Feature","geometry":{"type":"Point","coordinates":[-123.35749773599997,48.40790452600004]},"properties":{"id":56908,"countID":19,"onStreet":"Dallas Rd","location":"E","xStreet":"Cook St","countDirec":"EW","Month":5,"Year":2018,"peakHour":16}},
{"type":"Feature","geometry":{"type":"Point","coordinates":[-123.33605661499996,48.42696300100005]},"properties":{"id":56916,"countID":20,"onStreet":"Fort St","location":"N","xStreet":"Oak Bay Ave","countDirec":"EW","Month":5,"Year":2018,"peakHour":104}},
{"type":"Feature","geometry":{"type":"Point","coordinates":[-123.65354543899997,48.39448543300006]},"properties":{"id":56936,"countID":21,"onStreet":"Galloping Goose Regional Trail","location":"N","xStreet":"Sooke Rd","countDirec":"EW","Month":5,"Year":2018,"peakHour":1}},
{"type":"Feature","geometry":{"type":"Point","coordinates":[-123.36180267399999,48.50112326000004]},"properties":{"id":56956,"countID":22,"onStreet":"Lochside Dr","location":"S","xStreet":"Royal Oak Dr","countDirec":"NS","Month":5,"Year":2018,"peakHour":75}},
{"type":"Feature","geometry":{"type":"Point","coordinates":[-123.40032711099997,48.64379897800006]},"properties":{"id":56968,"countID":23,"onStreet":"Fifth St","location":"S","xStreet":"Ocean Ave","countDirec":"NS","Month":5,"Year":2018,"peakHour":33}},
{"type":"Feature","geometry":{"type":"Point","coordinates":[-123.41633158599996,48.66236781500004]},"properties":{"id":56988,"countID":24,"onStreet":"Lochside Regional Trail","location":"S","xStreet":"Ardwell Ave","countDirec":"NS","Month":5,"Year":2018,"peakHour":37}},
{"type":"Feature","geometry":{"type":"Point","coordinates":[-123.41469284799996,48.51153867100004]},"properties":{"id":57008,"countID":25,"onStreet":"West Saanich Rd","location":"N","xStreet":"Interurban Rd","countDirec":"NS","Month":5,"Year":2018,"peakHour":10}},
{"type":"Feature","geometry":{"type":"Point","coordinates":[-123.35445430899995,48.41958585700007]},"properties":{"id":57028,"countID":27,"onStreet":"Richardson St","location":"E","xStreet":"Cook St","countDirec":"EW","Month":5,"Year":2018,"peakHour":51}},
{"type":"Feature","geometry":{"type":"Point","coordinates":[-123.36082883499995,48.42765657900003]},"properties":{"id":57048,"countID":28,"onStreet":"Pandora St","location":"E","xStreet":"Blanshard St","countDirec":"EW","Month":5,"Year":2018,"peakHour":287}},
{"type":"Feature","geometry":{"type":"Point","coordinates":[-123.36092180999998,48.42676189800005]},