{"type":"FeatureCollection", "features": [
{"type":"Feature","geometry":{"type":"Point","coordinates":[-123.36143224399996,48.47028295900003]},"properties":{"id":1,"countID":5,"onStreet":"Lochside Regional Trail","location":"South","xStreet":"McKenzie Ave","countDirec":"NS","Month":10,"Year":2011,"peakHour":134}},
{"type":"Feature","geometry":{"type":"Point","coordinates":[-123.36732099299996,48.43554077300007]},"properties":{"id":2,"countID":9,"onStreet":"Government St","location":"South","xStreet":"Bay St","countDirec":"NS","Month":10,"Year":2011,"peakHour":39}},
{"type":"Feature","geometry":{"type":"Point","coordinates":[-123.36532232199994,48.43546488900006]},"properties":{"id":3,"countID":10,"onStreet":"Douglas St","location":"South","xStreet":"Bay St","countDirec":"NS","Month":10,"Year":2011,"peakHour":42}},
{"type":"Feature","geometry":{"type":"Point","coordinates":[-123.31568390899997,48.45844384000003]},"properties":{"id":4,"countID":16,"onStreet":"Henderson Rd","location":"South","xStreet":"Cedar Hill Cross Rd","countDirec":"NS","Month":10,"Year":2011,"peakHour":172}},
{"type":"Feature","geometry":{"type":"Point","coordinates":[-123.65354543899997,48.39448543300006]},"properties":{"id":5,"countID":21,"onStreet":"Galloping Goose Regional Trail","location":"North","xStreet":"Sooke Rd","countDirec":"EW","Month":10,"Year":2011,"peakHour":3}},
{"type":"Feature","geometry":{"type":"Point","coordinates":[-123.36180267399999,48.50112326000004]},"properties":{"id":6,"countID":22,"onStreet":"Lochside Dr","location":"South","xStreet":"Royal Oak Dr","countDirec":"NS","Month":10,"Year":2011,"peakHour":68}},
{"type":"Feature","geometry":{"type":"Point","coordinates":[-123.40032711099997,48.64379897800006]},"properties":{"id":7,"countID":23,"onStreet":"Fifth St","location":"South","xStreet":"Ocean Ave","countDirec":"NS","Month":10,"Year":2011,"peakHour":12}},
{"type":"Feature","geometry":{"type":"Point","coordinates":[-123.36092180999998,48.42676189800005]},"properties":{"id":8,"countID":29,"onStreet":"Johnson St","location":"East","xStreet":"Blanshard St","countDirec":"EW","Month":10,"Year":2011,"peakHour":67}},
{"type":"Feature","geometry":{"type":"Point","coordinates":[-123.36883685199996,48.42103860100008]},"properties":{"id":9,"countID":30,"onStreet":"Government St","location":"North","xStreet":"Belleville St","countDirec":"NS","Month":10,"Year":2011,"peakHour":127}},
{"type":"Feature","geometry":{"type":"Point","coordinates":[-123.41763092899998,48.43683759600003]},"properties":{"id":10,"countID":33,"onStreet":"Admirals Rd","location":"South","xStreet":"Colville Rd","countDirec":"NS","Month":10,"Year":2011,"peakHour":20}},
{"type":"Feature","geometry":{"type":"Point","coordinates":[-123.33275729999997,48.468277681000075]},"properties":{"id":11,"countID":34,"onStreet":"Shelbourne St","location":"South","xStreet":"McKenzie Ave","countDirec":"NS","Month":10,"Year":2011,"peakHour":25}},
{"type":"Feature","geometry":{"type":"Point","coordinates":[-123.33140648399996,48.468595976000074]},"properties":{"id":12,"countID":35,"onStreet":"McKenzie Ave","location":"East","xStreet":"Shelbourne St","countDirec":"EW","Month":10,"Year":2011,"peakHour":61}},
{"type":"Feature","geometry":{"type":"Point","coordinates":[-123.49651841099995,48.447818217000076]},"properties":{"id":13,"countID":38,"onStreet":"Goldstream Ave","location":"West","xStreet":"Veterans Memorial Pky","countDirec":"EW","Month":10,"Year":2011,"peakHour":19}},
{"type":"Feature","geometry":{"type":"Point","coordinates":[-123.46834573999996,48.44551078400008]},"properties":{"id":14,"countID":39,"onStreet":"Wale Rd","location":"West","xStreet":"Island Hwy","countDirec":"EW","Month":10,"Year":2011,"peakHour":31}},
{"type":"Feature","geometry":{"type":"Point","coordinates":[-123.44579941699999,48.57559392400003]},"properties":{"id":15,"countID":44,"onStreet":"West Saanich Rd","location":"North","xStreet":"Wallace Dr","countDirec":"NS","Month":10,"Year":2011,"peakHour":13}},
{"type":"Feature","geometry":{"type":"Point","coordinates":[-123.31447473299994,48.460206665000044]},"properties":{"id":16,"countID":45,"onStreet":"University Dr","location":"South","xStreet":"Ring Rd","countDirec":"NS","Month":10,"Year":2011,"peakHour":165}},
{"type":"Feature","geometry":{"type":"Point","coordinates":[-123.44603987299996,48.46464479800005]},"properties":{"id":17,"countID":58,"onStreet":"Galloping Goose","location":"East","xStreet":"Burnside Rd W","countDirec":"EW","Month":10,"Year":2011,"peakHour":79}},
{"type":"Feature","geometry":{"type":"Point","coordinates":[-123.36143224399996,48.47028295900003]},"properties":{"id":18,"countID":5,"onStreet":"Lochside Regional Trail","location":"South","xStreet":"McKenzie Ave","countDirec":"NS","Month":10,"Year":2011,"peakHour":140}},
{"type":"Feature","geometry":{"type":"Point","coordinates":[-123.36532232199994,48.43546488900006]},"properties":{"id":19,"countID":10,"onStreet":"Douglas St","location":"South","xStreet":"Bay St","countDirec":"NS","Month":10,"Year":2011,"peakHour":25}},
{"type":"Feature","geometry":{"type":"Point","coordinates":[-123.36285683699998,48.43500422200003]},"properties":{"id":20,"countID":11,"onStreet":"Blanshard St","location":"South","xStreet":"Bay St","countDirec":"NS","Month":10,"Year":2011,"peakHour":62}},
{"type":"Feature","geometry":{"type":"Point","coordinates":[-123.31568390899997,48.45844384000003]},"properties":{"id":21,"countID":16,"onStreet":"Henderson Rd","location":"South","xStreet":"Cedar Hill Cross Rd","countDirec":"NS","Month":10,"Year":2011,"peakHour":124}},
{"type":"Feature","geometry":{"type":"Point","coordinates":[-123.32230939799996,48.42645981600003]},"properties":{"id":22,"countID":18,"onStreet":"Oak Bay Ave","location":"East","xStreet":"Foul Bay Rd","countDirec":"EW","Month":10,"Year":2011,"peakHour":37}},
{"type":"Feature","geometry":{"type":"Point","coordinates":[-123.65354543899997,48.39448543300006]},"properties":{"id":23,"countID":21,"onStreet":"Galloping Goose Regional Trail","location":"North","xStreet":"Sooke Rd","countDirec":"EW","Month":10,"Year":2011,"peakHour":0}},
{"type":"Feature","geometry":{"type":"Point","coordinates":[-123.36180267399999,48.50112326000004]},"properties":{"id":24,"countID":22,"onStreet":"Lochside Dr","location":"South","xStreet":"Royal Oak Dr","countDirec":"NS","Month":10,"Year":2011,"peakHour":53}},
{"type":"Feature","geometry":{"type":"Point","coordinates":[-123.36082883499995,48.42765657900003]},"properties":{"id":25,"countID":28,"onStreet":"Pandora St","location":"East","xStreet":"Blanshard St","countDirec":"EW","Month":10,"Year":2011,"peakHour":55}},
{"type":"Feature","geometry":{"type":"Point","coordinates":[-123.42401988499995,48.45064374800006]},"properties":{"id":26,"countID":41,"onStreet":"Craigflower Rd","location":"East","xStreet":"Admirals Rd","countDirec":"EW","Month":10,"Year":2011,"peakHour":14}},
{"type":"Feature","geometry":{"type":"Point","coordinates":[-123.31447473299994,48.460206665000044]},"properties":{"id":27,"countID":45,"onStreet":"University Dr","location":"South","xStreet":"Ring Rd","countDirec":"NS","Month":10,"Year":2011,"peakHour":134}},
{"type":"Feature","geometry":{"type":"Point","coordinates":[-123.37755967999999,48.45557769000004]},"properties":{"id":28,"countID":4,"onStreet":"Galloping Goose Regional Trail","location":"South","xStreet":"Information Booth at Switch Bridge","countDirec":"NS","Month":10,"Year":2011,"peakHour":281}},
{"type":"Feature","geometry":{"type":"Point","coordinates":[-123.36732099299996,48.43554077300007]},"properties":{"id":29,"countID":9,"onStreet":"Government St","location":"South","xStreet":"Bay St","countDirec":"NS","Month":10,"Year":2011,"peakHour":55}},
{"type":"Feature","geometry":{"type":"Point","coordinates":[-123.36285683699998,48.43500422200003]},"properties":{"id":30,"countID":11,"onStreet":"Blanshard St","location":"South","xStreet":"Bay St","countDirec":"NS","Month":10,"Year":2011,"peakHour":43}},
{"type":"Feature","geometry":{"type":"Point","coordinates":[-123.31869200199998,48.46852549000005]},"properties":{"id":31,"countID":17,"onStreet":"McKenzie Ave","location":"East","xStreet":"Gordon Head Rd","countDirec":"EW","Month":10,"Year":2011,"peakHour":60}},
{"type":"Feature","geometry":{"type":"Point","coordinates":[-123.32230939799996,48.42645981600003]},"properties":{"id":32,"countID":18,"onStreet":"Oak Bay Ave","location":"East","xStreet":"Foul Bay Rd","countDirec":"EW","Month":10,"Year":2011,"peakHour":47}},
{"type":"Feature","geometry":{"type":"Point","coordinates":[-123.40032711099997,48.64379897800006]},"properties":{"id":33,"countID":23,"onStreet":"Fifth St","location":"South","xStreet":"Ocean Ave","countDirec":"NS","Month":10,"Year":2011,"peakHour":24}},
{"type":"Feature","geometry":{"type":"Point","coordinates":[-123.36883685199996,48.42103860100008]},"properties":{"id":34,"countID":30,"onStreet":"Government St","location":"North","xStreet":"Belleville St","countDirec":"NS","Month":10,"Year":2011,"peakHour":127}},
{"type":"Feature","geometry":{"type":"Point","coordinates":[-123.37727128899996,48.457034287000056]},"properties":{"id":35,"countID":31,"onStreet":"Lochside Regional Trail","location":"North","xStreet":"Switch Bridge","countDirec":"NS","Month":10,"Year":2011,"peakHour":205}},
{"type":"Feature","geometry":{"type":"Point","coordinates":[-123.37839444499997,48.45629315900004]},"properties":{"id":36,"countID":32,"onStreet":"Galloping Goose Regional Trail","location":"North","xStreet":"Crease Rd","countDirec":"EW","Month":10,"Year":2011,"peakHour":176}},
{"type":"Feature","geometry":{"type":"Point","coordinates":[-123.49651841099995,48.447818217000076]},"properties":{"id":37,"countID":38,"onStreet":"Goldstream Ave","location":"West","xStreet":"Veterans Memorial Pky","countDirec":"EW","Month":10,"Year":2011,"peakHour":6}},
{"type":"Feature","geometry":{"type":"Point","coordinates":[-123.42401988499995,48.45064374800006]},"properties":{"id":38,"countID":41,"onStreet":"Craigflower Rd","location":"East","xStreet":"Admirals Rd","countDirec":"EW","Month":10,"Year":2011,"peakHour":29}},
{"type":"Feature","geometry":{"type":"Point","coordinates":[-123.44579941699999,48.57559392400003]},"properties":{"id":39,"countID":44,"onStreet":"West Saanich Rd","location":"North","xStreet":"Wallace Dr","countDirec":"NS","Month":10,"Year":2011,"peakHour":10}},
{"type":"Feature","geometry":{"type":"Point","coordinates":[-123.44603987299996,48.46464479800005]},"properties":{"id":40,"countID":58,"onStreet":"Galloping Goose","location":"East","xStreet":"Burnside Rd W","countDirec":"EW","Month":10,"Year":2011,"peakHour":44}},
{"type":"Feature","geometry":{"type":"Point","coordinates":[-123.38871336499994,48.43082210800003]},"properties":{"id":41,"countID":3,"onStreet":"E&N Rail Trail","location":"North","xStreet":"Esquimalt Rd","countDirec":"NS","Month":10,"Year":2012,"peakHour":14}},
{"type":"Feature","geometry":{"type":"Point","coordinates":[-123.39451077099994,48.45920884600008]},"properties":{"id":42,"countID":6,"onStreet":"Interuban Rd","location":"North","xStreet":"Burnside Rd W","countDirec":"NS","Month":10,"Year":2012,"peakHour":62}},
{"type":"Feature","geometry":{"type":"Point","coordinates":[-123.31869200199998,48.46852549000005]},"properties":{"id":43,"countID":17,"onStreet":"McKenzie Ave","location":"East","xStreet":"Gordon Head Rd","countDirec":"EW","Month":10,"Year":2012,"peakHour":94}},
{"type":"Feature","geometry":{"type":"Point","coordinates":[-123.40032711099997,48.64379897800006]},"properties":{"id":44,"countID":23,"onStreet":"Fifth St","location":"South","xStreet":"Ocean Ave","countDirec":"NS","Month":10,"Year":2012,"peakHour":25}},
{"type":"Feature","geometry":{"type":"Point","coordinates":[-123.36082883499995,48.42765657900003]},"properties":{"id":45,"countID":28,"onStreet":"Pandora St","location":"East","xStreet":"Blanshard St","countDirec":"EW","Month":10,"Year":2012,"peakHour":82}},
{"type":"Feature","geometry":{"type":"Point","coordinates":[-123.36092180999998,48.42676189800005]},"properties":{"id":46,"countID":29,"onStreet":"Johnson St","location":"East","xStreet":"Blanshard St","countDirec":"EW","Month":10,"Year":2012,"peakHour":101}},
{"type":"Feature","geometry":{"type":"Point","coordinates":[-123.36883685199996,48.42103860100008]},"properties":{"id":47,"countID":30,"onStreet":"Government St","location":"North","xStreet":"Belleville St","countDirec":"NS","Month":10,"Year":2012,"peakHour":155}},
{"type":"Feature","geometry":{"type":"Point","coordinates":[-123.33275729999997,48.468277681000075]},"properties":{"id":48,"countID":34,"onStreet":"Shelbourne St","location":"South","xStreet":"McKenzie Ave","countDirec":"NS","Month":10,"Year":2012,"peakHour":33}},
{"type":"Feature","geometry":{"type":"Point","coordinates":[-123.33140648399996,48.468595976000074]},"properties":{"id":49,"countID":35,"onStreet":"McKenzie Ave","location":"East","xStreet":"Shelbourne St","countDirec":"EW","Month":10,"Year":2012,"peakHour":66}},
{"type":"Feature","geometry":{"type":"Point","coordinates":[-123.42401988499995,48.45064374800006]},"properties":{"id":50,"countID":41,"onStreet":"Craigflower Rd","location":"East","xStreet":"Admirals Rd","countDirec":"EW","Month":10,"Year":2012,"peakHour":16}},
{"type":"Feature","geometry":{"type":"Point","coordinates":[-123.72342415699995,48.377725059000056]},"properties":{"id":51,"countID":42,"onStreet":"Sooke Rd","location":"North","xStreet":"Otter Point Rd","countDirec":"EW","Month":10,"Year":2012,"peakHour":13}},
{"type":"Feature","geometry":{"type":"Point","coordinates":[-123.44579941699999,48.57559392400003]},"properties":{"id":52,"countID":44,"onStreet":"West Saanich Rd","location":"North","xStreet":"Wallace Dr","countDirec":"NS","Month":10,"Year":2012,"peakHour":19}},
{"type":"Feature","geometry":{"type":"Point","coordinates":[-123.37208228399999,48.42804025500004]},"properties":{"id":53,"countID":2,"onStreet":"Johnson St Bridge","location":"West","xStreet":"Wharf St","countDirec":"EW","Month":10,"Year":2012,"peakHour":385}},
{"type":"Feature","geometry":{"type":"Point","coordinates":[-123.36732099299996,48.43554077300007]},"properties":{"id":54,"countID":9,"onStreet":"Government St","location":"South","xStreet":"Bay St","countDirec":"NS","Month":10,"Year":2012,"peakHour":68}},
{"type":"Feature","geometry":{"type":"Point","coordinates":[-123.36532232199994,48.43546488900006]},"properties":{"id":55,"countID":10,"onStreet":"Douglas St","location":"South","xStreet":"Bay St","countDirec":"NS","Month":10,"Year":2012,"peakHour":60}},
{"type":"Feature","geometry":{"type":"Point","coordinates":[-123.36285683699998,48.43500422200003]},"properties":{"id":56,"countID":11,"onStreet":"Blanshard St","location":"South","xStreet":"Bay St","countDirec":"NS","Month":10,"Year":2012,"peakHour":69}},
{"type":"Feature","geometry":{"type":"Point","coordinates":[-123.31568390899997,48.45844384000003]},"properties":{"id":57,"countID":16,"onStreet":"Henderson Rd","location":"South","xStreet":"Cedar Hill Cross Rd","countDirec":"NS","Month":10,"Year":2012,"peakHour":246}},
{"type":"Feature","geometry":{"type":"Point","coordinates":[-123.32230939799996,48.42645981600003]},"properties":{"id":58,"countID":18,"onStreet":"Oak Bay Ave","location":"East","xStreet":"Foul Bay Rd","countDirec":"EW","Month":10,"Year":2012,"peakHour":57}},
{"type":"Feature","geometry":{"type":"Point","coordinates":[-123.36180267399999,48.50112326000004]},"properties":{"id":59,"countID":22,"onStreet":"Lochside Dr","location":"South","xStreet":"Royal Oak Dr","countDirec":"NS","Month":10,"Year":2012,"peakHour":92}},
{"type":"Feature","geometry":{"type":"Point","coordinates":[-123.33275729999997,48.468277681000075]},"properties":{"id":60,"countID":34,"onStreet":"Shelbourne St","location":"South","xStreet":"McKenzie Ave","countDirec":"NS","Month":10,"Year":2012,"peakHour":27}},
{"type":"Feature","geometry":{"type":"Point","coordinates":[-123.33140648399996,48.468595976000074]},"properties":{"id":61,"countID":35,"onStreet":"McKenzie Ave","location":"East","xStreet":"Shelbourne St","countDirec":"EW","Month":10,"Year":2012,"peakHour":64}},
{"type":"Feature","geometry":{"type":"Point","coordinates":[-123.46834573999996,48.44551078400008]},"properties":{"id":62,"countID":39,"onStreet":"Wale Rd","location":"West","xStreet":"Island Hwy","countDirec":"EW","Month":10,"Year":2012,"peakHour":30}},
{"type":"Feature","geometry":{"type":"Point","coordinates":[-123.42401988499995,48.45064374800006]},"properties":{"id":63,"countID":41,"onStreet":"Craigflower Rd","location":"East","xStreet":"Admirals Rd","countDirec":"EW","Month":10,"Year":2012,"peakHour":28}},
{"type":"Feature","geometry":{"type":"Point","coordinates":[-123.44579941699999,48.57559392400003]},"properties":{"id":64,"countID":44,"onStreet":"West Saanich Rd","location":"North","xStreet":"Wallace Dr","countDirec":"NS","Month":10,"Year":2012,"peakHour":6}},
{"type":"Feature","geometry":{"type":"Point","coordinates":[-123.36063761499997,48.47177904800003]},"properties":{"id":65,"countID":49,"onStreet":"Lochside Regional Trail","location":"North","xStreet":"Cedar Hill Cross Rd","countDirec":"NS","Month":10,"Year":2012,"peakHour":119}},
{"type":"Feature","geometry":{"type":"Point","coordinates":[-123.31447473299994,48.460206665000044]},"properties":{"id":66,"countID":45,"onStreet":"University Dr","location":"South","xStreet":"Ring Rd","countDirec":"NS","Month":10,"Year":2012,"peakHour":247}},
{"type":"Feature","geometry":{"type":"Point","coordinates":[-123.37755967999999,48.45557769000004]},"properties":{"id":67,"countID":4,"onStreet":"Galloping Goose Regional Trail","location":"South","xStreet":"Information Booth at Switch Bridge","countDirec":"NS","Month":10,"Year":2012,"peakHour":362}},
{"type":"Feature","geometry":{"type":"Point","coordinates":[-123.36143224399996,48.47028295900003]},"properties":{"id":68,"countID":5,"onStreet":"Lochside Regional Trail","location":"South","xStreet":"McKenzie Ave","countDirec":"NS","Month":10,"Year":2012,"peakHour":172}},
{"type":"Feature","geometry":{"type":"Point","coordinates":[-123.36732099299996,48.43554077300007]},"properties":{"id":69,"countID":9,"onStreet":"Government St","location":"South","xStreet":"Bay St","countDirec":"NS","Month":10,"Year":2012,"peakHour":53}},
{"type":"Feature","geometry":{"type":"Point","coordinates":[-123.65354543899997,48.39448543300006]},"properties":{"id":70,"countID":21,"onStreet":"Galloping Goose Regional Trail","location":"North","xStreet":"Sooke Rd","countDirec":"EW","Month":10,"Year":2012,"peakHour":6}},
{"type":"Feature","geometry":{"type":"Point","coordinates":[-123.41469284799996,48.51153867100004]},"properties":{"id":71,"countID":25,"onStreet":"West Saanich Rd","location":"North","xStreet":"Interurban Rd","countDirec":"NS","Month":10,"Year":2012,"peakHour":32}},
{"type":"Feature","geometry":{"type":"Point","coordinates":[-123.37727128899996,48.457034287000056]},"properties":{"id":72,"countID":31,"onStreet":"Lochside Regional Trail","location":"North","xStreet":"Switch Bridge","countDirec":"NS","Month":10,"Year":2012,"peakHour":253}},
{"type":"Feature","geometry":{"type":"Point","coordinates":[-123.37839444499997,48.45629315900004]},"properties":{"id":73,"countID":32,"onStreet":"Galloping Goose Regional Trail","location":"North","xStreet":"Crease Rd","countDirec":"EW","Month":10,"Year":2012,"peakHour":216}},
{"type":"Feature","geometry":{"type":"Point","coordinates":[-123.41763092899998,48.43683759600003]},"properties":{"id":74,"countID":33,"onStreet":"Admirals Rd","location":"South","xStreet":"Colville Rd","countDirec":"NS","Month":10,"Year":2012,"peakHour":44}},
{"type":"Feature","geometry":{"type":"Point","coordinates":[-123.49651841099995,48.447818217000076]},"properties":{"id":75,"countID":38,"onStreet":"Goldstream Ave","location":"West","xStreet":"Veterans Memorial Pky","countDirec":"EW","Month":10,"Year":2012,"peakHour":35}},
{"type":"Feature","geometry":{"type":"Point","coordinates":[-123.46834573999996,48.44551078400008]},"properties":{"id":76,"countID":39,"onStreet":"Wale Rd","location":"West","xStreet":"Island Hwy","countDirec":"EW","Month":10,"Year":2012,"peakHour":36}},
{"type":"Feature","geometry":{"type":"Point","coordinates":[-123.36063761499997,48.47177904800003]},"properties":{"id":77,"countID":49,"onStreet":"Lochside Regional Trail","location":"North","xStreet":"Cedar Hill Cross Rd","countDirec":"NS","Month":10,"Year":2012,"peakHour":90}},
{"type":"Feature","geometry":{"type":"Point","coordinates":[-123.44603987299996,48.46464479800005]},"properties":{"id":78,"countID":58,"onStreet":"Galloping Goose","location":"East","xStreet":"Burnside Rd W","countDirec":"EW","Month":10,"Year":2012,"peakHour":87}},
{"type":"Feature","geometry":{"type":"Point","coordinates":[-123.38871336499994,48.43082210800003]},"properties":{"id":79,"countID":3,"onStreet":"E&N Rail Trail","location":"North","xStreet":"Esquimalt Rd","countDirec":"NS","Month":1,"Year":2013,"peakHour":9}},
{"type":"Feature","geometry":{"type":"Point","coordinates":[-123.36532232199994,48.43546488900006]},"properties":{"id":80,"countID":10,"onStreet":"Douglas St","location":"South","xStreet":"Bay St","countDirec":"NS","Month":1,"Year":2013,"peakHour":21}},
{"type":"Feature","geometry":{"type":"Point","coordinates":[-123.36285683699998,48.43500422200003]},"properties":{"id":81,"countID":11,"onStreet":"Blanshard St","location":"South","xStreet":"Bay St","countDirec":"NS","Month":1,"Year":2013,"peakHour":36}},
{"type":"Feature","geometry":{"type":"Point","coordinates":[-123.41763092899998,48.43683759600003]},"properties":{"id":82,"countID":33,"onStreet":"Admirals Rd","location":"South","xStreet":"Colville Rd","countDirec":"NS","Month":1,"Year":2013,"peakHour":13}},
{"type":"Feature","geometry":{"type":"Point","coordinates":[-123.49651841099995,48.447818217000076]},"properties":{"id":83,"countID":38,"onStreet":"Goldstream Ave","location":"West","xStreet":"Veterans Memorial Pky","countDirec":"EW","Month":1,"Year":2013,"peakHour":10}},
{"type":"Feature","geometry":{"type":"Point","coordinates":[-123.72342415699995,48.377725059000056]},"properties":{"id":84,"countID":42,"onStreet":"Sooke Rd","location":"North","xStreet":"Otter Point Rd","countDirec":"EW","Month":1,"Year":2013,"peakHour":1}},
{"type":"Feature","geometry":{"type":"Point","coordinates":[-123.37208228399999,48.42804025500004]},"properties":{"id":85,"countID":2,"onStreet":"Johnson St Bridge","location":"West","xStreet":"Wharf St","countDirec":"EW","Month":1,"Year":2013,"peakHour":248}},
{"type":"Feature","geometry":{"type":"Point","coordinates":[-123.37755967999999,48.45557769000004]},"properties":{"id":86,"countID":4,"onStreet":"Galloping Goose Regional Trail","location":"South","xStreet":"Information Booth at Switch Bridge","countDirec":"NS","Month":1,"Year":2013,"peakHour":186}},
{"type":"Feature","geometry":{"type":"Point","coordinates":[-123.37727128899996,48.457034287000056]},"properties":{"id":87,"countID":31,"onStreet":"Lochside Regional Trail","location":"North","xStreet":"Switch Bridge","countDirec":"NS","Month":1,"Year":2013,"peakHour":138}},
{"type":"Feature","geometry":{"type":"Point","coordinates":[-123.37839444499997,48.45629315900004]},"properties":{"id":88,"countID":32,"onStreet":"Galloping Goose Regional Trail","location":"North","xStreet":"Crease Rd","countDirec":"EW","Month":1,"Year":2013,"peakHour":109}},
{"type":"Feature","geometry":{"type":"Point","coordinates":[-123.72342415699995,48.377725059000056]},"properties":{"id":89,"countID":42,"onStreet":"Sooke Rd","location":"North","xStreet":"Otter Point Rd","countDirec":"EW","Month":1,"Year":2013,"peakHour":1}},
{"type":"Feature","geometry":{"type":"Point","coordinates":[-123.36285683699998,48.43500422200003]},"properties":{"id":90,"countID":11,"onStreet":"Blanshard St","location":"South","xStreet":"Bay St","countDirec":"NS","Month":1,"Year":2013,"peakHour":44}},
{"type":"Feature","geometry":{"type":"Point","coordinates":[-123.31869200199998,48.46852549000005]},"properties":{"id":91,"countID":17,"onStreet":"McKenzie Ave","location":"East","xStreet":"Gordon Head Rd","countDirec":"EW","Month":1,"Year":2013,"peakHour":60}},
{"type":"Feature","geometry":{"type":"Point","coordinates":[-123.36180267399999,48.50112326000004]},"properties":{"id":92,"countID":22,"onStreet":"Lochside Dr","location":"South","xStreet":"Royal Oak Dr","countDirec":"NS","Month":1,"Year":2013,"peakHour":32}},
{"type":"Feature","geometry":{"type":"Point","coordinates":[-123.41763092899998,48.43683759600003]},"properties":{"id":93,"countID":33,"onStreet":"Admirals Rd","location":"South","xStreet":"Colville Rd","countDirec":"NS","Month":1,"Year":2013,"peakHour":26}},
{"type":"Feature","geometry":{"type":"Point","coordinates":[-123.33275729999997,48.468277681000075]},"properties":{"id":94,"countID":34,"onStreet":"Shelbourne St","location":"South","xStreet":"McKenzie Ave","countDirec":"NS","Month":1,"Year":2013,"peakHour":20}},
{"type":"Feature","geometry":{"type":"Point","coordinates":[-123.33140648399996,48.468595976000074]},"properties":{"id":95,"countID":35,"onStreet":"McKenzie Ave","location":"East","xStreet":"Shelbourne St","countDirec":"EW","Month":1,"Year":2013,"peakHour":35}},
{"type":"Feature","geometry":{"type":"Point","coordinates":[-123.42401988499995,48.45064374800006]},"properties":{"id":96,"countID":41,"onStreet":"Craigflower Rd","location":"East","xStreet":"Admirals Rd","countDirec":"EW","Month":1,"Year":2013,"peakHour":11}},
{"type":"Feature","geometry":{"type":"Point","coordinates":[-123.37755967999999,48.45557769000004]},"properties":{"id":97,"countID":4,"onStreet":"Galloping Goose Regional Trail","location":"South","xStreet":"Information Booth at Switch Bridge","countDirec":"NS","Month":5,"Year":2013,"peakHour":428}},
{"type":"Feature","geometry":{"type":"Point","coordinates":[-123.36732099299996,48.43554077300007]},"properties":{"id":98,"countID":9,"onStreet":"Government St","location":"South","xStreet":"Bay St","countDirec":"NS","Month":5,"Year":2013,"peakHour":53}},
{"type":"Feature","geometry":{"type":"Point","coordinates":[-123.31568390899997,48.45844384000003]},"properties":{"id":99,"countID":16,"onStreet":"Henderson Rd","location":"South","xStreet":"Cedar Hill Cross Rd","countDirec":"NS","Month":5,"Year":2013,"peakHour":180}},
{"type":"Feature","geometry":{"type":"Point","coordinates":[-123.31869200199998,48.46852549000005]},"properties":{"id":100,"countID":17,"onStreet":"McKenzie Ave","location":"East","xStreet":"Gordon Head Rd","countDirec":"EW","Month":5,"Year":2013,"peakHour":75}},
{"type":"Feature","geometry":{"type":"Point","coordinates":[-123.36082883499995,48.42765657900003]},"properties":{"id":101,"countID":28,"onStreet":"Pandora St","location":"East","xStreet":"Blanshard St","countDirec":"EW","Month":5,"Year":2013,"peakHour":102}},
{"type":"Feature","geometry":{"type":"Point","coordinates":[-123.36092180999998,48.42676189800005]},"properties":{"id":102,"countID":29,"onStreet":"Johnson St","location":"East","xStreet":"Blanshard St","countDirec":"EW","Month":5,"Year":2013,"peakHour":86}},
{"type":"Feature","geometry":{"type":"Point","coordinates":[-123.37727128899996,48.457034287000056]},"properties":{"id":103,"countID":31,"onStreet":"Lochside Regional Trail","location":"North","xStreet":"Switch Bridge","countDirec":"NS","Month":5,"Year":2013,"peakHour":284}},
{"type":"Feature","geometry":{"type":"Point","coordinates":[-123.37839444499997,48.45629315900004]},"properties":{"id":104,"countID":32,"onStreet":"Galloping Goose Regional Trail","location":"North","xStreet":"Crease Rd","countDirec":"EW","Month":5,"Year":2013,"peakHour":282}},
{"type":"Feature","geometry":{"type":"Point","coordinates":[-123.72342415699995,48.377725059000056]},"properties":{"id":105,"countID":42,"onStreet":"Sooke Rd","location":"North","xStreet":"Otter Point Rd","countDirec":"EW","Month":5,"Year":2013,"peakHour":12}},
{"type":"Feature","geometry":{"type":"Point","coordinates":[-123.31447473299994,48.460206665000044]},"properties":{"id":106,"countID":45,"onStreet":"University Dr","location":"South","xStreet":"Ring Rd","countDirec":"NS","Month":5,"Year":2013,"peakHour":181}},
{"type":"Feature","geometry":{"type":"Point","coordinates":[-123.37208228399999,48.42804025500004]},"properties":{"id":107,"countID":2,"onStreet":"Johnson St Bridge","location":"West","xStreet":"Wharf St","countDirec":"EW","Month":5,"Year":2013,"peakHour":444}},
{"type":"Feature","geometry":{"type":"Point","coordinates":[-123.38871336499994,48.43082210800003]},"properties":{"id":108,"countID":3,"onStreet":"E&N Rail Trail","location":"North","xStreet":"Esquimalt Rd","countDirec":"NS","Month":5,"Year":2013,"peakHour":7}},
{"type":"Feature","geometry":{"type":"Point","coordinates":[-123.36883685199996,48.42103860100008]},"properties":{"id":109,"countID":30,"onStreet":"Government St","location":"North","xStreet":"Belleville St","countDirec":"NS","Month":5,"Year":2013,"peakHour":167}},
{"type":"Feature","geometry":{"type":"Point","coordinates":[-123.41763092899998,48.43683759600003]},"properties":{"id":110,"countID":33,"onStreet":"Admirals Rd","location":"South","xStreet":"Colville Rd","countDirec":"NS","Month":5,"Year":2013,"peakHour":46}},
{"type":"Feature","geometry":{"type":"Point","coordinates":[-123.33275729999997,48.468277681000075]},"properties":{"id":111,"countID":34,"onStreet":"Shelbourne St","location":"South","xStreet":"McKenzie Ave","countDirec":"NS","Month":5,"Year":2013,"peakHour":31}},
{"type":"Feature","geometry":{"type":"Point","coordinates":[-123.33140648399996,48.468595976000074]},"properties":{"id":112,"countID":35,"onStreet":"McKenzie Ave","location":"East","xStreet":"Shelbourne St","countDirec":"EW","Month":5,"Year":2013,"peakHour":59}},
{"type":"Feature","geometry":{"type":"Point","coordinates":[-123.49651841099995,48.447818217000076]},"properties":{"id":113,"countID":38,"onStreet":"Goldstream Ave","location":"West","xStreet":"Veterans Memorial Pky","countDirec":"EW","Month":5,"Year":2013,"peakHour":43}},
{"type":"Feature","geometry":{"type":"Point","coordinates":[-123.42401988499995,48.45064374800006]},"properties":{"id":114,"countID":41,"onStreet":"Craigflower Rd","location":"East","xStreet":"Admirals Rd","countDirec":"EW","Month":5,"Year":2013,"peakHour":24}},
{"type":"Feature","geometry":{"type":"Point","coordinates":[-123.72342415699995,48.377725059000056]},"properties":{"id":115,"countID":42,"onStreet":"Sooke Rd","location":"North","xStreet":"Otter Point Rd","countDirec":"EW","Month":5,"Year":2013,"peakHour":4}},
{"type":"Feature","geometry":{"type":"Point","coordinates":[-123.36732099299996,48.43554077300007]},"properties":{"id":116,"countID":9,"onStreet":"Government St","location":"South","xStreet":"Bay St","countDirec":"NS","Month":5,"Year":2013,"peakHour":63}},
{"type":"Feature","geometry":{"type":"Point","coordinates":[-123.36532232199994,48.43546488900006]},"properties":{"id":117,"countID":10,"onStreet":"Douglas St","location":"South","xStreet":"Bay St","countDirec":"NS","Month":5,"Year":2013,"peakHour":52}},
{"type":"Feature","geometry":{"type":"Point","coordinates":[-123.36285683699998,48.43500422200003]},"properties":{"id":118,"countID":11,"onStreet":"Blanshard St","location":"South","xStreet":"Bay St","countDirec":"NS","Month":5,"Year":2013,"peakHour":60}},
{"type":"Feature","geometry":{"type":"Point","coordinates":[-123.36180267399999,48.50112326000004]},"properties":{"id":119,"countID":22,"onStreet":"Lochside Dr","location":"South","xStreet":"Royal Oak Dr","countDirec":"NS","Month":5,"Year":2013,"peakHour":119}},
{"type":"Feature","geometry":{"type":"Point","coordinates":[-123.41763092899998,48.43683759600003]},"properties":{"id":120,"countID":33,"onStreet":"Admirals Rd","location":"South","xStreet":"Colville Rd","countDirec":"NS","Month":5,"Year":2013,"peakHour":26}},
{"type":"Feature","geometry":{"type":"Point","coordinates":[-123.33275729999997,48.468277681000075]},"properties":{"id":121,"countID":34,"onStreet":"Shelbourne St","location":"South","xStreet":"McKenzie Ave","countDirec":"NS","Month":5,"Year":2013,"peakHour":35}},
{"type":"Feature","geometry":{"type":"Point","coordinates":[-123.33140648399996,48.468595976000074]},"properties":{"id":122,"countID":35,"onStreet":"McKenzie Ave","location":"East","xStreet":"Shelbourne St","countDirec":"EW","Month":5,"Year":2013,"peakHour":57}},
{"type":"Feature","geometry":{"type":"Point","coordinates":[-123.35749773599997,48.40790452600004]},"properties":{"id":123,"countID":19,"onStreet":"Dallas Rd","location":"East","xStreet":"Cook St","countDirec":"EW","Month":5,"Year":2013,"peakHour":154}},
{"type":"Feature","geometry":{"type":"Point","coordinates":[-123.72342415699995,48.377725059000056]},"properties":{"id":124,"countID":42,"onStreet":"Sooke Rd","location":"North","xStreet":"Otter Point Rd","countDirec":"EW","Month":5,"Year":2013,"peakHour":9}},
{"type":"Feature","geometry":{"type":"Point","coordinates":[-123.37208228399999,48.42804025500004]},"properties":{"id":125,"countID":2,"onStreet":"Johnson St Bridge","location":"West","xStreet":"Wharf St","countDirec":"EW","Month":7,"Year":2013,"peakHour":476}},
{"type":"Feature","geometry":{"type":"Point","coordinates":[-123.38871336499994,48.43082210800003]},"properties":{"id":126,"countID":3,"onStreet":"E&N Rail Trail","location":"North","xStreet":"Esquimalt Rd","countDirec":"NS","Month":7,"Year":2013,"peakHour":9}},
{"type":"Feature","geometry":{"type":"Point","coordinates":[-123.36732099299996,48.43554077300007]},"properties":{"id":127,"countID":9,"onStreet":"Government St","location":"South","xStreet":"Bay St","countDirec":"NS","Month":7,"Year":2013,"peakHour":81}},
{"type":"Feature","geometry":{"type":"Point","coordinates":[-123.36532232199994,48.43546488900006]},"properties":{"id":128,"countID":10,"onStreet":"Douglas St","location":"South","xStreet":"Bay St","countDirec":"NS","Month":7,"Year":2013,"peakHour":49}},
{"type":"Feature","geometry":{"type":"Point","coordinates":[-123.36285683699998,48.43500422200003]},"properties":{"id":129,"countID":11,"onStreet":"Blanshard St","location":"South","xStreet":"Bay St","countDirec":"NS","Month":7,"Year":2013,"peakHour":80}},
{"type":"Feature","geometry":{"type":"Point","coordinates":[-123.36082883499995,48.42765657900003]},"properties":{"id":130,"countID":28,"onStreet":"Pandora St","location":"East","xStreet":"Blanshard St","countDirec":"EW","Month":7,"Year":2013,"peakHour":83}},
{"type":"Feature","geometry":{"type":"Point","coordinates":[-123.36883685199996,48.42103860100008]},"properties":{"id":131,"countID":30,"onStreet":"Government St","location":"North","xStreet":"Belleville St","countDirec":"NS","Month":7,"Year":2013,"peakHour":180}},
{"type":"Feature","geometry":{"type":"Point","coordinates":[-123.33275729999997,48.468277681000075]},"properties":{"id":132,"countID":34,"onStreet":"Shelbourne St","location":"South","xStreet":"McKenzie Ave","countDirec":"NS","Month":7,"Year":2013,"peakHour":52}},
{"type":"Feature","geometry":{"type":"Point","coordinates":[-123.33140648399996,48.468595976000074]},"properties":{"id":133,"countID":35,"onStreet":"McKenzie Ave","location":"East","xStreet":"Shelbourne St","countDirec":"EW","Month":7,"Year":2013,"peakHour":24}},
{"type":"Feature","geometry":{"type":"Point","coordinates":[-123.36092180999998,48.42676189800005]},"properties":{"id":134,"countID":29,"onStreet":"Johnson St","location":"East","xStreet":"Blanshard St","countDirec":"EW","Month":7,"Year":2013,"peakHour":90}},
{"type":"Feature","geometry":{"type":"Point","coordinates":[-123.41763092899998,48.43683759600003]},"properties":{"id":135,"countID":33,"onStreet":"Admirals Rd","location":"South","xStreet":"Colville Rd","countDirec":"NS","Month":7,"Year":2013,"peakHour":43}},
{"type":"Feature","geometry":{"type":"Point","coordinates":[-123.46834573999996,48.44551078400008]},"properties":{"id":136,"countID":39,"onStreet":"Wale Rd","location":"West","xStreet":"Island Hwy","countDirec":"EW","Month":7,"Year":2013,"peakHour":49}},
{"type":"Feature","geometry":{"type":"Point","coordinates":[-123.42401988499995,48.45064374800006]},"properties":{"id":137,"countID":41,"onStreet":"Craigflower Rd","location":"East","xStreet":"Admirals Rd","countDirec":"EW","Month":7,"Year":2013,"peakHour":18}},
{"type":"Feature","geometry":{"type":"Point","coordinates":[-123.72342415699995,48.377725059000056]},"properties":{"id":138,"countID":42,"onStreet":"Sooke Rd","location":"North","xStreet":"Otter Point Rd","countDirec":"EW","Month":7,"Year":2013,"peakHour":10}},
{"type":"Feature","geometry":{"type":"Point","coordinates":[-123.37755967999999,48.45557769000004]},"properties":{"id":139,"countID":4,"onStreet":"Galloping Goose Regional Trail","location":"South","xStreet":"Information Booth at Switch Bridge","countDirec":"NS","Month":7,"Year":2013,"peakHour":401}},
{"type":"Feature","geometry":{"type":"Point","coordinates":[-123.31869200199998,48.46852549000005]},"properties":{"id":140,"countID":17,"onStreet":"McKenzie Ave","location":"East","xStreet":"Gordon Head Rd","countDirec":"EW","Month":7,"Year":2013,"peakHour":68}},
{"type":"Feature","geometry":{"type":"Point","coordinates":[-123.36180267399999,48.50112326000004]},"properties":{"id":141,"countID":22,"onStreet":"Lochside Dr","location":"South","xStreet":"Royal Oak Dr","countDirec":"NS","Month":7,"Year":2013,"peakHour":133}},
{"type":"Feature","geometry":{"type":"Point","coordinates":[-123.37727128899996,48.457034287000056]},"properties":{"id":142,"countID":31,"onStreet":"Lochside Regional Trail","location":"North","xStreet":"Switch Bridge","countDirec":"NS","Month":7,"Year":2013,"peakHour":305}},
{"type":"Feature","geometry":{"type":"Point","coordinates":[-123.37839444499997,48.45629315900004]},"properties":{"id":143,"countID":32,"onStreet":"Galloping Goose Regional Trail","location":"North","xStreet":"Crease Rd","countDirec":"EW","Month":7,"Year":2013,"peakHour":254}},
{"type":"Feature","geometry":{"type":"Point","coordinates":[-123.33275729999997,48.468277681000075]},"properties":{"id":144,"countID":34,"onStreet":"Shelbourne St","location":"South","xStreet":"McKenzie Ave","countDirec":"NS","Month":7,"Year":2013,"peakHour":36}},
{"type":"Feature","geometry":{"type":"Point","coordinates":[-123.33140648399996,48.468595976000074]},"properties":{"id":145,"countID":35,"onStreet":"McKenzie Ave","location":"East","xStreet":"Shelbourne St","countDirec":"EW","Month":7,"Year":2013,"peakHour":48}},
{"type":"Feature","geometry":{"type":"Point","coordinates":[-123.49651841099995,48.447818217000076]},"properties":{"id":146,"countID":38,"onStreet":"Goldstream Ave","location":"West","xStreet":"Veterans Memorial Pky","countDirec":"EW","Month":7,"Year":2013,"peakHour":29}},
{"type":"Feature","geometry":{"type":"Point","coordinates":[-123.36285683699998,48.43500422200003]},"properties":{"id":147,"countID":11,"onStreet":"Blanshard St","location":"South","xStreet":"Bay St","countDirec":"NS","Month":10,"Year":2013,"peakHour":29}},
{"type":"Feature","geometry":{"type":"Point","coordinates":[-123.35749773599997,48.40790452600004]},"properties":{"id":148,"countID":19,"onStreet":"Dallas Rd","location":"East","xStreet":"Cook St","countDirec":"EW","Month":10,"Year":2013,"peakHour":50}},
{"type":"Feature","geometry":{"type":"Point","coordinates":[-123.33605661499996,48.42696300100005]},"properties":{"id":149,"countID":20,"onStreet":"Fort St","location":"North","xStreet":"Oak Bay Ave","countDirec":"EW","Month":10,"Year":2013,"peakHour":67}},
{"type":"Feature","geometry":{"type":"Point","coordinates":[-123.36180267399999,48.50112326000004]},"properties":{"id":150,"countID":22,"onStreet":"Lochside Dr","location":"South","xStreet":"Royal Oak Dr","countDirec":"NS","Month":10,"Year":2013,"peakHour":39}},
{"type":"Feature","geometry":{"type":"Point","coordinates":[-123.40032711099997,48.64379897800006]},"properties":{"id":151,"countID":23,"onStreet":"Fifth St","location":"South","xStreet":"Ocean Ave","countDirec":"NS","Month":10,"Year":2013,"peakHour":11}},
{"type":"Feature","geometry":{"type":"Point","coordinates":[-123.33275729999997,48.468277681000075]},"properties":{"id":152,"countID":34,"onStreet":"Shelbourne St","location":"South","xStreet":"McKenzie Ave","countDirec":"NS","Month":10,"Year":2013,"peakHour":29}},
{"type":"Feature","geometry":{"type":"Point","coordinates":[-123.33140648399996,48.468595976000074]},"properties":{"id":153,"countID":35,"onStreet":"McKenzie Ave","location":"East","xStreet":"Shelbourne St","countDirec":"EW","Month":10,"Year":2013,"peakHour":40}},
{"type":"Feature","geometry":{"type":"Point","coordinates":[-123.40729603799997,48.42964775100006]},"properties":{"id":154,"countID":40,"onStreet":"Esquimalt Rd","location":"West","xStreet":"Lampson St","countDirec":"EW","Month":10,"Year":2013,"peakHour":46}},
{"type":"Feature","geometry":{"type":"Point","coordinates":[-123.42401988499995,48.45064374800006]},"properties":{"id":155,"countID":41,"onStreet":"Craigflower Rd","location":"East","xStreet":"Admirals Rd","countDirec":"EW","Month":10,"Year":2013,"peakHour":18}},
{"type":"Feature","geometry":{"type":"Point","coordinates":[-123.72342415699995,48.377725059000056]},"properties":{"id":156,"countID":42,"onStreet":"Sooke Rd","location":"North","xStreet":"Otter Point Rd","countDirec":"EW","Month":10,"Year":2013,"peakHour":5}},
{"type":"Feature","geometry":{"type":"Point","coordinates":[-123.32223273499994,48.43221492200007]},"properties":{"id":157,"countID":57,"onStreet":"Cadboro Bay Rd","location":"East","xStreet":"Foul Bay Rd","countDirec":"EW","Month":10,"Year":2013,"peakHour":25}},
{"type":"Feature","geometry":{"type":"Point","coordinates":[-123.37208228399999,48.42804025500004]},"properties":{"id":158,"countID":2,"onStreet":"Johnson St Bridge","location":"West","xStreet":"Wharf St","countDirec":"EW","Month":10,"Year":2013,"peakHour":260}},
{"type":"Feature","geometry":{"type":"Point","coordinates":[-123.36143224399996,48.47028295900003]},"properties":{"id":159,"countID":5,"onStreet":"Lochside Regional Trail","location":"South","xStreet":"McKenzie Ave","countDirec":"NS","Month":10,"Year":2013,"peakHour":113}},
{"type":"Feature","geometry":{"type":"Point","coordinates":[-123.36732099299996,48.43554077300007]},"properties":{"id":160,"countID":9,"onStreet":"Government St","location":"South","xStreet":"Bay St","countDirec":"NS","Month":10,"Year":2013,"peakHour":45}},
{"type":"Feature","geometry":{"type":"Point","coordinates":[-123.36532232199994,48.43546488900006]},"properties":{"id":161,"countID":10,"onStreet":"Douglas St","location":"South","xStreet":"Bay St","countDirec":"NS","Month":10,"Year":2013,"peakHour":35}},
{"type":"Feature","geometry":{"type":"Point","coordinates":[-123.36285683699998,48.43500422200003]},"properties":{"id":162,"countID":11,"onStreet":"Blanshard St","location":"South","xStreet":"Bay St","countDirec":"NS","Month":10,"Year":2013,"peakHour":44}},
{"type":"Feature","geometry":{"type":"Point","coordinates":[-123.31568390899997,48.45844384000003]},"properties":{"id":163,"countID":16,"onStreet":"Henderson Rd","location":"South","xStreet":"Cedar Hill Cross Rd","countDirec":"NS","Month":10,"Year":2013,"peakHour":135}},
{"type":"Feature","geometry":{"type":"Point","coordinates":[-123.36082883499995,48.42765657900003]},"properties":{"id":164,"countID":28,"onStreet":"Pandora St","location":"East","xStreet":"Blanshard St","countDirec":"EW","Month":10,"Year":2013,"peakHour":46}},
{"type":"Feature","geometry":{"type":"Point","coordinates":[-123.36092180999998,48.42676189800005]},"properties":{"id":165,"countID":29,"onStreet":"Johnson St","location":"East","xStreet":"Blanshard St","countDirec":"EW","Month":10,"Year":2013,"peakHour":57}},
{"type":"Feature","geometry":{"type":"Point","coordinates":[-123.36883685199996,48.42103860100008]},"properties":{"id":166,"countID":30,"onStreet":"Government St","location":"North","xStreet":"Belleville St","countDirec":"NS","Month":10,"Year":2013,"peakHour":78}},
{"type":"Feature","geometry":{"type":"Point","coordinates":[-123.49651841099995,48.447818217000076]},"properties":{"id":167,"countID":38,"onStreet":"Goldstream Ave","location":"West","xStreet":"Veterans Memorial Pky","countDirec":"EW","Month":10,"Year":2013,"peakHour":12}},
{"type":"Feature","geometry":{"type":"Point","coordinates":[-123.72342415699995,48.377725059000056]},"properties":{"id":168,"countID":42,"onStreet":"Sooke Rd","location":"North","xStreet":"Otter Point Rd","countDirec":"EW","Month":10,"Year":2013,"peakHour":5}},
{"type":"Feature","geometry":{"type":"Point","coordinates":[-123.31447473299994,48.460206665000044]},"properties":{"id":169,"countID":45,"onStreet":"University Dr","location":"South","xStreet":"Ring Rd","countDirec":"NS","Month":10,"Year":2013,"peakHour":145}},
{"type":"Feature","geometry":{"type":"Point","coordinates":[-123.38871336499994,48.43082210800003]},"properties":{"id":170,"countID":3,"onStreet":"E&N Rail Trail","location":"North","xStreet":"Esquimalt Rd","countDirec":"NS","Month":10,"Year":2013,"peakHour":11}},
{"type":"Feature","geometry":{"type":"Point","coordinates":[-123.37755967999999,48.45557769000004]},"properties":{"id":171,"countID":4,"onStreet":"Galloping Goose Regional Trail","location":"South","xStreet":"Information Booth at Switch Bridge","countDirec":"NS","Month":10,"Year":2013,"peakHour":320}},
{"type":"Feature","geometry":{"type":"Point","coordinates":[-123.39451077099994,48.45920884600008]},"properties":{"id":172,"countID":6,"onStreet":"Interuban Rd","location":"North","xStreet":"Burnside Rd W","countDirec":"NS","Month":10,"Year":2013,"peakHour":66}},
{"type":"Feature","geometry":{"type":"Point","coordinates":[-123.43149381699999,48.45175934700006]},"properties":{"id":173,"countID":7,"onStreet":"E&N Rail Trail","location":"South","xStreet":"Portage Park Trail","countDirec":"NS","Month":10,"Year":2013,"peakHour":26}},
{"type":"Feature","geometry":{"type":"Point","coordinates":[-123.31869200199998,48.46852549000005]},"properties":{"id":174,"countID":17,"onStreet":"McKenzie Ave","location":"East","xStreet":"Gordon Head Rd","countDirec":"EW","Month":10,"Year":2013,"peakHour":92}},
{"type":"Feature","geometry":{"type":"Point","coordinates":[-123.65354543899997,48.39448543300006]},"properties":{"id":175,"countID":21,"onStreet":"Galloping Goose Regional Trail","location":"North","xStreet":"Sooke Rd","countDirec":"EW","Month":10,"Year":2013,"peakHour":1}},
{"type":"Feature","geometry":{"type":"Point","coordinates":[-123.37727128899996,48.457034287000056]},"properties":{"id":176,"countID":31,"onStreet":"Lochside Regional Trail","location":"North","xStreet":"Switch Bridge","countDirec":"NS","Month":10,"Year":2013,"peakHour":214}},
{"type":"Feature","geometry":{"type":"Point","coordinates":[-123.37839444499997,48.45629315900004]},"properties":{"id":177,"countID":32,"onStreet":"Galloping Goose Regional Trail","location":"North","xStreet":"Crease Rd","countDirec":"EW","Month":10,"Year":2013,"peakHour":204}},
{"type":"Feature","geometry":{"type":"Point","coordinates":[-123.41763092899998,48.43683759600003]},"properties":{"id":178,"countID":33,"onStreet":"Admirals Rd","location":"South","xStreet":"Colville Rd","countDirec":"NS","Month":10,"Year":2013,"peakHour":35}},
{"type":"Feature","geometry":{"type":"Point","coordinates":[-123.46834573999996,48.44551078400008]},"properties":{"id":179,"countID":39,"onStreet":"Wale Rd","location":"West","xStreet":"Island Hwy","countDirec":"EW","Month":10,"Year":2013,"peakHour":23}},
{"type":"Feature","geometry":{"type":"Point","coordinates":[-123.40729603799997,48.42964775100006]},"properties":{"id":180,"countID":40,"onStreet":"Esquimalt Rd","location":"West","xStreet":"Lampson St","countDirec":"EW","Month":10,"Year":2013,"peakHour":52}},
{"type":"Feature","geometry":{"type":"Point","coordinates":[-123.44579941699999,48.57559392400003]},"properties":{"id":181,"countID":44,"onStreet":"West Saanich Rd","location":"North","xStreet":"Wallace Dr","countDirec":"NS","Month":10,"Year":2013,"peakHour":11}},
{"type":"Feature","geometry":{"type":"Point","coordinates":[-123.38809107199995,48.46725218900008]},"properties":{"id":182,"countID":47,"onStreet":"Glanford Ave","location":"North","xStreet":"McKenzie Ave","countDirec":"NS","Month":10,"Year":2013,"peakHour":14}},
{"type":"Feature","geometry":{"type":"Point","coordinates":[-123.36063761499997,48.47177904800003]},"properties":{"id":183,"countID":49,"onStreet":"Lochside Regional Trail","location":"North","xStreet":"Cedar Hill Cross Rd","countDirec":"NS","Month":10,"Year":2013,"peakHour":76}},
{"type":"Feature","geometry":{"type":"Point","coordinates":[-123.33330532599996,48.44580724900004]},"properties":{"id":184,"countID":54,"onStreet":"Shelbourne St","location":"North","xStreet":"Hillside Ave","countDirec":"NS","Month":10,"Year":2013,"peakHour":36}},
{"type":"Feature","geometry":{"type":"Point","coordinates":[-123.36143224399996,48.47028295900003]},"properties":{"id":185,"countID":5,"onStreet":"Lochside Regional Trail","location":"South","xStreet":"McKenzie Ave","countDirec":"NS","Month":1,"Year":2014,"peakHour":93}},
{"type":"Feature","geometry":{"type":"Point","coordinates":[-123.31869200199998,48.46852549000005]},"properties":{"id":186,"countID":17,"onStreet":"McKenzie Ave","location":"East","xStreet":"Gordon Head Rd","countDirec":"EW","Month":1,"Year":2014,"peakHour":42}},
{"type":"Feature","geometry":{"type":"Point","coordinates":[-123.36082883499995,48.42765657900003]},"properties":{"id":187,"countID":28,"onStreet":"Pandora St","location":"East","xStreet":"Blanshard St","countDirec":"EW","Month":1,"Year":2014,"peakHour":39}},
{"type":"Feature","geometry":{"type":"Point","coordinates":[-123.36092180999998,48.42676189800005]},"properties":{"id":188,"countID":29,"onStreet":"Johnson St","location":"East","xStreet":"Blanshard St","countDirec":"EW","Month":1,"Year":2014,"peakHour":63}},
{"type":"Feature","geometry":{"type":"Point","coordinates":[-123.36883685199996,48.42103860100008]},"properties":{"id":189,"countID":30,"onStreet":"Government St","location":"North","xStreet":"Belleville St","countDirec":"NS","Month":1,"Year":2014,"peakHour":65}},
{"type":"Feature","geometry":{"type":"Point","coordinates":[-123.37755967999999,48.45557769000004]},"properties":{"id":190,"countID":4,"onStreet":"Galloping Goose Regional Trail","location":"South","xStreet":"Information Booth at Switch Bridge","countDirec":"NS","Month":1,"Year":2014,"peakHour":207}},
{"type":"Feature","geometry":{"type":"Point","coordinates":[-123.36732099299996,48.43554077300007]},"properties":{"id":191,"countID":9,"onStreet":"Government St","location":"South","xStreet":"Bay St","countDirec":"NS","Month":1,"Year":2014,"peakHour":34}},
{"type":"Feature","geometry":{"type":"Point","coordinates":[-123.36532232199994,48.43546488900006]},"properties":{"id":192,"countID":10,"onStreet":"Douglas St","location":"South","xStreet":"Bay St","countDirec":"NS","Month":1,"Year":2014,"peakHour":30}},
{"type":"Feature","geometry":{"type":"Point","coordinates":[-123.36285683699998,48.43500422200003]},"properties":{"id":193,"countID":11,"onStreet":"Blanshard St","location":"South","xStreet":"Bay St","countDirec":"NS","Month":1,"Year":2014,"peakHour":42}},
{"type":"Feature","geometry":{"type":"Point","coordinates":[-123.37727128899996,48.457034287000056]},"properties":{"id":194,"countID":31,"onStreet":"Lochside Regional Trail","location":"North","xStreet":"Switch Bridge","countDirec":"NS","Month":1,"Year":2014,"peakHour":149}},
{"type":"Feature","geometry":{"type":"Point","coordinates":[-123.37839444499997,48.45629315900004]},"properties":{"id":195,"countID":32,"onStreet":"Galloping Goose Regional Trail","location":"North","xStreet":"Crease Rd","countDirec":"EW","Month":1,"Year":2014,"peakHour":128}},
{"type":"Feature","geometry":{"type":"Point","coordinates":[-123.33275729999997,48.468277681000075]},"properties":{"id":196,"countID":34,"onStreet":"Shelbourne St","location":"South","xStreet":"McKenzie Ave","countDirec":"NS","Month":1,"Year":2014,"peakHour":17}},
{"type":"Feature","geometry":{"type":"Point","coordinates":[-123.33140648399996,48.468595976000074]},"properties":{"id":197,"countID":35,"onStreet":"McKenzie Ave","location":"East","xStreet":"Shelbourne St","countDirec":"EW","Month":1,"Year":2014,"peakHour":35}},
{"type":"Feature","geometry":{"type":"Point","coordinates":[-123.37208228399999,48.42804025500004]},"properties":{"id":198,"countID":2,"onStreet":"Johnson St Bridge","location":"West","xStreet":"Wharf St","countDirec":"EW","Month":1,"Year":2014,"peakHour":232}},
{"type":"Feature","geometry":{"type":"Point","coordinates":[-123.38871336499994,48.43082210800003]},"properties":{"id":199,"countID":3,"onStreet":"E&N Rail Trail","location":"North","xStreet":"Esquimalt Rd","countDirec":"NS","Month":1,"Year":2014,"peakHour":4}},
{"type":"Feature","geometry":{"type":"Point","coordinates":[-123.39451077099994,48.45920884600008]},"properties":{"id":200,"countID":6,"onStreet":"Interuban Rd","location":"North","xStreet":"Burnside Rd W","countDirec":"NS","Month":1,"Year":2014,"peakHour":22}},
{"type":"Feature","geometry":{"type":"Point","coordinates":[-123.31568390899997,48.45844384000003]},"properties":{"id":201,"countID":16,"onStreet":"Henderson Rd","location":"South","xStreet":"Cedar Hill Cross Rd","countDirec":"NS","Month":1,"Year":2014,"peakHour":96}},
{"type":"Feature","geometry":{"type":"Point","coordinates":[-123.36180267399999,48.50112326000004]},"properties":{"id":202,"countID":22,"onStreet":"Lochside Dr","location":"South","xStreet":"Royal Oak Dr","countDirec":"NS","Month":1,"Year":2014,"peakHour":33}},
{"type":"Feature","geometry":{"type":"Point","coordinates":[-123.41763092899998,48.43683759600003]},"properties":{"id":203,"countID":33,"onStreet":"Admirals Rd","location":"South","xStreet":"Colville Rd","countDirec":"NS","Month":1,"Year":2014,"peakHour":17}},
{"type":"Feature","geometry":{"type":"Point","coordinates":[-123.49651841099995,48.447818217000076]},"properties":{"id":204,"countID":38,"onStreet":"Goldstream Ave","location":"West","xStreet":"Veterans Memorial Pky","countDirec":"EW","Month":1,"Year":2014,"peakHour":17}},
{"type":"Feature","geometry":{"type":"Point","coordinates":[-123.46834573999996,48.44551078400008]},"properties":{"id":205,"countID":39,"onStreet":"Wale Rd","location":"West","xStreet":"Island Hwy","countDirec":"EW","Month":1,"Year":2014,"peakHour":17}},
{"type":"Feature","geometry":{"type":"Point","coordinates":[-123.33330532599996,48.44580724900004]},"properties":{"id":206,"countID":54,"onStreet":"Shelbourne St","location":"North","xStreet":"Hillside Ave","countDirec":"NS","Month":1,"Year":2014,"peakHour":25}},
{"type":"Feature","geometry":{"type":"Point","coordinates":[-123.31447473299994,48.460206665000044]},"properties":{"id":207,"countID":45,"onStreet":"University Dr","location":"South","xStreet":"Ring Rd","countDirec":"NS","Month":1,"Year":2014,"peakHour":91}},
{"type":"Feature","geometry":{"type":"Point","coordinates":[-123.37755967999999,48.45557769000004]},"properties":{"id":208,"countID":4,"onStreet":"Galloping Goose Regional Trail","location":"South","xStreet":"Information Booth at Switch Bridge","countDirec":"NS","Month":5,"Year":2014,"peakHour":411}},
{"type":"Feature","geometry":{"type":"Point","coordinates":[-123.31568390899997,48.45844384000003]},"properties":{"id":209,"countID":16,"onStreet":"Henderson Rd","location":"South","xStreet":"Cedar Hill Cross Rd","countDirec":"NS","Month":5,"Year":2014,"peakHour":114}},
{"type":"Feature","geometry":{"type":"Point","coordinates":[-123.31869200199998,48.46852549000005]},"properties":{"id":210,"countID":17,"onStreet":"McKenzie Ave","location":"East","xStreet":"Gordon Head Rd","countDirec":"EW","Month":5,"Year":2014,"peakHour":51}},
{"type":"Feature","geometry":{"type":"Point","coordinates":[-123.35749773599997,48.40790452600004]},"properties":{"id":211,"countID":19,"onStreet":"Dallas Rd","location":"East","xStreet":"Cook St","countDirec":"EW","Month":5,"Year":2014,"peakHour":77}},
{"type":"Feature","geometry":{"type":"Point","coordinates":[-123.33605661499996,48.42696300100005]},"properties":{"id":212,"countID":20,"onStreet":"Fort St","location":"North","xStreet":"Oak Bay Ave","countDirec":"EW","Month":5,"Year":2014,"peakHour":80}},
{"type":"Feature","geometry":{"type":"Point","coordinates":[-123.36180267399999,48.50112326000004]},"properties":{"id":213,"countID":22,"onStreet":"Lochside Dr","location":"South","xStreet":"Royal Oak Dr","countDirec":"NS","Month":5,"Year":2014,"peakHour":88}},
{"type":"Feature","geometry":{"type":"Point","coordinates":[-123.37727128899996,48.457034287000056]},"properties":{"id":214,"countID":31,"onStreet":"Lochside Regional Trail","location":"North","xStreet":"Switch Bridge","countDirec":"NS","Month":5,"Year":2014,"peakHour":280}},
{"type":"Feature","geometry":{"type":"Point","coordinates":[-123.37839444499997,48.45629315900004]},"properties":{"id":215,"countID":32,"onStreet":"Galloping Goose Regional Trail","location":"North","xStreet":"Crease Rd","countDirec":"EW","Month":5,"Year":2014,"peakHour":253}},
{"type":"Feature","geometry":{"type":"Point","coordinates":[-123.41763092899998,48.43683759600003]},"properties":{"id":216,"countID":33,"onStreet":"Admirals Rd","location":"South","xStreet":"Colville Rd","countDirec":"NS","Month":5,"Year":2014,"peakHour":24}},
{"type":"Feature","geometry":{"type":"Point","coordinates":[-123.31447473299994,48.460206665000044]},"properties":{"id":217,"countID":45,"onStreet":"University Dr","location":"South","xStreet":"Ring Rd","countDirec":"NS","Month":5,"Year":2014,"peakHour":116}},
{"type":"Feature","geometry":{"type":"Point","coordinates":[-123.37208228399999,48.42804025500004]},"properties":{"id":218,"countID":2,"onStreet":"Johnson St Bridge","location":"West","xStreet":"Wharf St","countDirec":"EW","Month":5,"Year":2014,"peakHour":275}},
{"type":"Feature","geometry":{"type":"Point","coordinates":[-123.36143224399996,48.47028295900003]},"properties":{"id":219,"countID":5,"onStreet":"Lochside Regional Trail","location":"South","xStreet":"McKenzie Ave","countDirec":"NS","Month":5,"Year":2014,"peakHour":119}},
{"type":"Feature","geometry":{"type":"Point","coordinates":[-123.40032711099997,48.64379897800006]},"properties":{"id":220,"countID":23,"onStreet":"Fifth St","location":"South","xStreet":"Ocean Ave","countDirec":"NS","Month":5,"Year":2014,"peakHour":4}},
{"type":"Feature","geometry":{"type":"Point","coordinates":[-123.36883685199996,48.42103860100008]},"properties":{"id":221,"countID":30,"onStreet":"Government St","location":"North","xStreet":"Belleville St","countDirec":"NS","Month":5,"Year":2014,"peakHour":82}},
{"type":"Feature","geometry":{"type":"Point","coordinates":[-123.44579941699999,48.57559392400003]},"properties":{"id":222,"countID":44,"onStreet":"West Saanich Rd","location":"North","xStreet":"Wallace Dr","countDirec":"NS","Month":5,"Year":2014,"peakHour":3}},
{"type":"Feature","geometry":{"type":"Point","coordinates":[-123.37755967999999,48.45557769000004]},"properties":{"id":223,"countID":4,"onStreet":"Galloping Goose Regional Trail","location":"South","xStreet":"Information Booth at Switch Bridge","countDirec":"NS","Month":5,"Year":2014,"peakHour":209}},
{"type":"Feature","geometry":{"type":"Point","coordinates":[-123.35749773599997,48.40790452600004]},"properties":{"id":224,"countID":19,"onStreet":"Dallas Rd","location":"East","xStreet":"Cook St","countDirec":"EW","Month":5,"Year":2014,"peakHour":95}},
{"type":"Feature","geometry":{"type":"Point","coordinates":[-123.36180267399999,48.50112326000004]},"properties":{"id":225,"countID":22,"onStreet":"Lochside Dr","location":"South","xStreet":"Royal Oak Dr","countDirec":"NS","Month":5,"Year":2014,"peakHour":80}},
{"type":"Feature","geometry":{"type":"Point","coordinates":[-123.40032711099997,48.64379897800006]},"properties":{"id":226,"countID":23,"onStreet":"Fifth St","location":"South","xStreet":"Ocean Ave","countDirec":"NS","Month":5,"Year":2014,"peakHour":136}},
{"type":"Feature","geometry":{"type":"Point","coordinates":[-123.36883685199996,48.42103860100008]},"properties":{"id":227,"countID":30,"onStreet":"Government St","location":"North","xStreet":"Belleville St","countDirec":"NS","Month":5,"Year":2014,"peakHour":156}},
{"type":"Feature","geometry":{"type":"Point","coordinates":[-123.37727128899996,48.457034287000056]},"properties":{"id":228,"countID":31,"onStreet":"Lochside Regional Trail","location":"North","xStreet":"Switch Bridge","countDirec":"NS","Month":5,"Year":2014,"peakHour":169}},
{"type":"Feature","geometry":{"type":"Point","coordinates":[-123.37839444499997,48.45629315900004]},"properties":{"id":229,"countID":32,"onStreet":"Galloping Goose Regional Trail","location":"North","xStreet":"Crease Rd","countDirec":"EW","Month":5,"Year":2014,"peakHour":186}},
{"type":"Feature","geometry":{"type":"Point","coordinates":[-123.37208228399999,48.42804025500004]},"properties":{"id":230,"countID":2,"onStreet":"Johnson St Bridge","location":"West","xStreet":"Wharf St","countDirec":"EW","Month":5,"Year":2014,"peakHour":215}},
{"type":"Feature","geometry":{"type":"Point","coordinates":[-123.37755967999999,48.45557769000004]},"properties":{"id":231,"countID":4,"onStreet":"Galloping Goose Regional Trail","location":"South","xStreet":"Information Booth at Switch Bridge","countDirec":"NS","Month":5,"Year":2014,"peakHour":139}},
{"type":"Feature","geometry":{"type":"Point","coordinates":[-123.36143224399996,48.47028295900003]},"properties":{"id":232,"countID":5,"onStreet":"Lochside Regional Trail","location":"South","xStreet":"McKenzie Ave","countDirec":"NS","Month":5,"Year":2014,"peakHour":135}},
{"type":"Feature","geometry":{"type":"Point","coordinates":[-123.36180267399999,48.50112326000004]},"properties":{"id":233,"countID":22,"onStreet":"Lochside Dr","location":"South","xStreet":"Royal Oak Dr","countDirec":"NS","Month":5,"Year":2014,"peakHour":154}},
{"type":"Feature","geometry":{"type":"Point","coordinates":[-123.36883685199996,48.42103860100008]},"properties":{"id":234,"countID":30,"onStreet":"Government St","location":"North","xStreet":"Belleville St","countDirec":"NS","Month":5,"Year":2014,"peakHour":133}},
{"type":"Feature","geometry":{"type":"Point","coordinates":[-123.37727128899996,48.457034287000056]},"properties":{"id":235,"countID":31,"onStreet":"Lochside Regional Trail","location":"North","xStreet":"Switch Bridge","countDirec":"NS","Month":5,"Year":2014,"peakHour":148}},
{"type":"Feature","geometry":{"type":"Point","coordinates":[-123.37839444499997,48.45629315900004]},"properties":{"id":236,"countID":32,"onStreet":"Galloping Goose Regional Trail","location":"North","xStreet":"Crease Rd","countDirec":"EW","Month":5,"Year":2014,"peakHour":75}},
{"type":"Feature","geometry":{"type":"Point","coordinates":[-123.41763092899998,48.43683759600003]},"properties":{"id":237,"countID":33,"onStreet":"Admirals Rd","location":"South","xStreet":"Colville Rd","countDirec":"NS","Month":5,"Year":2014,"peakHour":17}},
{"type":"Feature","geometry":{"type":"Point","coordinates":[-123.37208228399999,48.42804025500004]},"properties":{"id":238,"countID":2,"onStreet":"Johnson St Bridge","location":"West","xStreet":"Wharf St","countDirec":"EW","Month":10,"Year":2014,"peakHour":464}},
{"type":"Feature","geometry":{"type":"Point","coordinates":[-123.36732099299996,48.43554077300007]},"properties":{"id":239,"countID":9,"onStreet":"Government St","location":"South","xStreet":"Bay St","countDirec":"NS","Month":10,"Year":2014,"peakHour":66}},
{"type":"Feature","geometry":{"type":"Point","coordinates":[-123.36532232199994,48.43546488900006]},"properties":{"id":240,"countID":10,"onStreet":"Douglas St","location":"South","xStreet":"Bay St","countDirec":"NS","Month":10,"Year":2014,"peakHour":48}},
{"type":"Feature","geometry":{"type":"Point","coordinates":[-123.36285683699998,48.43500422200003]},"properties":{"id":241,"countID":11,"onStreet":"Blanshard St","location":"South","xStreet":"Bay St","countDirec":"NS","Month":10,"Year":2014,"peakHour":70}},
{"type":"Feature","geometry":{"type":"Point","coordinates":[-123.36282109999996,48.41985707500004]},"properties":{"id":242,"countID":15,"onStreet":"Humboldt St","location":"East","xStreet":"Blanshard St","countDirec":"EW","Month":10,"Year":2014,"peakHour":47}},
{"type":"Feature","geometry":{"type":"Point","coordinates":[-123.32230939799996,48.42645981600003]},"properties":{"id":243,"countID":18,"onStreet":"Oak Bay Ave","location":"East","xStreet":"Foul Bay Rd","countDirec":"EW","Month":10,"Year":2014,"peakHour":55}},
{"type":"Feature","geometry":{"type":"Point","coordinates":[-123.41633158599996,48.66236781500004]},"properties":{"id":244,"countID":24,"onStreet":"Lochside Regional Trail","location":"South","xStreet":"Ardwell Ave","countDirec":"NS","Month":10,"Year":2014,"peakHour":44}},
{"type":"Feature","geometry":{"type":"Point","coordinates":[-123.36082883499995,48.42765657900003]},"properties":{"id":245,"countID":28,"onStreet":"Pandora St","location":"East","xStreet":"Blanshard St","countDirec":"EW","Month":10,"Year":2014,"peakHour":79}},
{"type":"Feature","geometry":{"type":"Point","coordinates":[-123.36092180999998,48.42676189800005]},"properties":{"id":246,"countID":29,"onStreet":"Johnson St","location":"East","xStreet":"Blanshard St","countDirec":"EW","Month":10,"Year":2014,"peakHour":98}},
{"type":"Feature","geometry":{"type":"Point","coordinates":[-123.36883685199996,48.42103860100008]},"properties":{"id":247,"countID":30,"onStreet":"Government St","location":"North","xStreet":"Belleville St","countDirec":"NS","Month":10,"Year":2014,"peakHour":156}},
{"type":"Feature","geometry":{"type":"Point","coordinates":[-123.33330532599996,48.44580724900004]},"properties":{"id":248,"countID":54,"onStreet":"Shelbourne St","location":"North","xStreet":"Hillside Ave","countDirec":"NS","Month":10,"Year":2014,"peakHour":37}},
{"type":"Feature","geometry":{"type":"Point","coordinates":[-123.44603987299996,48.46464479800005]},"properties":{"id":249,"countID":58,"onStreet":"Galloping Goose","location":"East","xStreet":"Burnside Rd W","countDirec":"EW","Month":10,"Year":2014,"peakHour":90}},
{"type":"Feature","geometry":{"type":"Point","coordinates":[-123.37755967999999,48.45557769000004]},"properties":{"id":250,"countID":4,"onStreet":"Galloping Goose Regional Trail","location":"South","xStreet":"Information Booth at Switch Bridge","countDirec":"NS","Month":10,"Year":2014,"peakHour":366}},
{"type":"Feature","geometry":{"type":"Point","coordinates":[-123.43149381699999,48.45175934700006]},"properties":{"id":251,"countID":7,"onStreet":"E&N Rail Trail","location":"South","xStreet":"Portage Park Trail","countDirec":"NS","Month":10,"Year":2014,"peakHour":74}},
{"type":"Feature","geometry":{"type":"Point","coordinates":[-123.38293690399996,48.43761650300007]},"properties":{"id":252,"countID":8,"onStreet":"Galloping Goose Regional Trail","location":"South","xStreet":"Selkirk Trestle","countDirec":"NS","Month":10,"Year":2014,"peakHour":348}},
{"type":"Feature","geometry":{"type":"Point","coordinates":[-123.31568390899997,48.45844384000003]},"properties":{"id":253,"countID":16,"onStreet":"Henderson Rd","location":"South","xStreet":"Cedar Hill Cross Rd","countDirec":"NS","Month":10,"Year":2014,"peakHour":182}},
{"type":"Feature","geometry":{"type":"Point","coordinates":[-123.65354543899997,48.39448543300006]},"properties":{"id":254,"countID":21,"onStreet":"Galloping Goose Regional Trail","location":"North","xStreet":"Sooke Rd","countDirec":"EW","Month":10,"Year":2014,"peakHour":1}},
{"type":"Feature","geometry":{"type":"Point","coordinates":[-123.37727128899996,48.457034287000056]},"properties":{"id":255,"countID":31,"onStreet":"Lochside Regional Trail","location":"North","xStreet":"Switch Bridge","countDirec":"NS","Month":10,"Year":2014,"peakHour":263}},
{"type":"Feature","geometry":{"type":"Point","coordinates":[-123.37839444499997,48.45629315900004]},"properties":{"id":256,"countID":32,"onStreet":"Galloping Goose Regional Trail","location":"North","xStreet":"Crease Rd","countDirec":"EW","Month":10,"Year":2014,"peakHour":215}},
{"type":"Feature","geometry":{"type":"Point","coordinates":[-123.41763092899998,48.43683759600003]},"properties":{"id":257,"countID":33,"onStreet":"Admirals Rd","location":"South","xStreet":"Colville Rd","countDirec":"NS","Month":10,"Year":2014,"peakHour":36}},
{"type":"Feature","geometry":{"type":"Point","coordinates":[-123.379325129,48.442833248000056]},"properties":{"id":258,"countID":37,"onStreet":"Gorge Rd","location":"West","xStreet":"Jutland Rd","countDirec":"EW","Month":10,"Year":2014,"peakHour":38}},
{"type":"Feature","geometry":{"type":"Point","coordinates":[-123.40729603799997,48.42964775100006]},"properties":{"id":259,"countID":40,"onStreet":"Esquimalt Rd","location":"West","xStreet":"Lampson St","countDirec":"EW","Month":10,"Year":2014,"peakHour":81}},
{"type":"Feature","geometry":{"type":"Point","coordinates":[-123.45482807499997,48.460937873000034]},"properties":{"id":260,"countID":43,"onStreet":"Galloping Goose Regional Trail","location":"South","xStreet":"E&N Rail Trail","countDirec":"EW","Month":10,"Year":2014,"peakHour":128}},
{"type":"Feature","geometry":{"type":"Point","coordinates":[-123.70094830699998,48.38740964300007]},"properties":{"id":261,"countID":46,"onStreet":"Sooke Rd","location":"West","xStreet":"Sooke River Rd","countDirec":"EW","Month":10,"Year":2014,"peakHour":26}},
{"type":"Feature","geometry":{"type":"Point","coordinates":[-123.38809107199995,48.46725218900008]},"properties":{"id":262,"countID":47,"onStreet":"Glanford Ave","location":"North","xStreet":"McKenzie Ave","countDirec":"NS","Month":10,"Year":2014,"peakHour":21}},
{"type":"Feature","geometry":{"type":"Point","coordinates":[-123.32696780299995,48.44615601500004]},"properties":{"id":263,"countID":51,"onStreet":"Lansdowne Rd","location":"West","xStreet":"Richmond Rd","countDirec":"EW","Month":10,"Year":2014,"peakHour":38}},
{"type":"Feature","geometry":{"type":"Point","coordinates":[-123.31447473299994,48.460206665000044]},"properties":{"id":264,"countID":45,"onStreet":"University Dr","location":"South","xStreet":"Ring Rd","countDirec":"NS","Month":10,"Year":2014,"peakHour":192}},
{"type":"Feature","geometry":{"type":"Point","coordinates":[-123.37755967999999,48.45557769000004]},"properties":{"id":265,"countID":4,"onStreet":"Galloping Goose Regional Trail","location":"South","xStreet":"Information Booth at Switch Bridge","countDirec":"NS","Month":10,"Year":2014,"peakHour":282}},
{"type":"Feature","geometry":{"type":"Point","coordinates":[-123.36143224399996,48.47028295900003]},"properties":{"id":266,"countID":5,"onStreet":"Lochside Regional Trail","location":"South","xStreet":"McKenzie Ave","countDirec":"NS","Month":10,"Year":2014,"peakHour":168}},
{"type":"Feature","geometry":{"type":"Point","coordinates":[-123.38293690399996,48.43761650300007]},"properties":{"id":267,"countID":8,"onStreet":"Galloping Goose Regional Trail","location":"South","xStreet":"Selkirk Trestle","countDirec":"NS","Month":10,"Year":2014,"peakHour":253}},
{"type":"Feature","geometry":{"type":"Point","coordinates":[-123.31869200199998,48.46852549000005]},"properties":{"id":268,"countID":17,"onStreet":"McKenzie Ave","location":"East","xStreet":"Gordon Head Rd","countDirec":"EW","Month":10,"Year":2014,"peakHour":127}},
{"type":"Feature","geometry":{"type":"Point","coordinates":[-123.35749773599997,48.40790452600004]},"properties":{"id":269,"countID":19,"onStreet":"Dallas Rd","location":"East","xStreet":"Cook St","countDirec":"EW","Month":10,"Year":2014,"peakHour":25}},
{"type":"Feature","geometry":{"type":"Point","coordinates":[-123.33605661499996,48.42696300100005]},"properties":{"id":270,"countID":20,"onStreet":"Fort St","location":"North","xStreet":"Oak Bay Ave","countDirec":"EW","Month":10,"Year":2014,"peakHour":80}},
{"type":"Feature","geometry":{"type":"Point","coordinates":[-123.36180267399999,48.50112326000004]},"properties":{"id":271,"countID":22,"onStreet":"Lochside Dr","location":"South","xStreet":"Royal Oak Dr","countDirec":"NS","Month":10,"Year":2014,"peakHour":80}},
{"type":"Feature","geometry":{"type":"Point","coordinates":[-123.37727128899996,48.457034287000056]},"properties":{"id":272,"countID":31,"onStreet":"Lochside Regional Trail","location":"North","xStreet":"Switch Bridge","countDirec":"NS","Month":10,"Year":2014,"peakHour":211}},
{"type":"Feature","geometry":{"type":"Point","coordinates":[-123.37839444499997,48.45629315900004]},"properties":{"id":273,"countID":32,"onStreet":"Galloping Goose Regional Trail","location":"North","xStreet":"Crease Rd","countDirec":"EW","Month":10,"Year":2014,"peakHour":176}},
{"type":"Feature","geometry":{"type":"Point","coordinates":[-123.33275729999997,48.468277681000075]},"properties":{"id":274,"countID":34,"onStreet":"Shelbourne St","location":"South","xStreet":"McKenzie Ave","countDirec":"NS","Month":10,"Year":2014,"peakHour":34}},
{"type":"Feature","geometry":{"type":"Point","coordinates":[-123.33140648399996,48.468595976000074]},"properties":{"id":275,"countID":35,"onStreet":"McKenzie Ave","location":"East","xStreet":"Shelbourne St","countDirec":"EW","Month":10,"Year":2014,"peakHour":90}},
{"type":"Feature","geometry":{"type":"Point","coordinates":[-123.379325129,48.442833248000056]},"properties":{"id":276,"countID":37,"onStreet":"Gorge Rd","location":"West","xStreet":"Jutland Rd","countDirec":"EW","Month":10,"Year":2014,"peakHour":30}},
{"type":"Feature","geometry":{"type":"Point","coordinates":[-123.42401988499995,48.45064374800006]},"properties":{"id":277,"countID":41,"onStreet":"Craigflower Rd","location":"East","xStreet":"Admirals Rd","countDirec":"EW","Month":10,"Year":2014,"peakHour":26}},
{"type":"Feature","geometry":{"type":"Point","coordinates":[-123.33330532599996,48.44580724900004]},"properties":{"id":278,"countID":54,"onStreet":"Shelbourne St","location":"North","xStreet":"Hillside Ave","countDirec":"NS","Month":10,"Year":2014,"peakHour":36}},
{"type":"Feature","geometry":{"type":"Point","coordinates":[-123.37755967999999,48.45557769000004]},"properties":{"id":279,"countID":4,"onStreet":"Galloping Goose Regional Trail","location":"South","xStreet":"Information Booth at Switch Bridge","countDirec":"NS","Month":1,"Year":2015,"peakHour":253}},
{"type":"Feature","geometry":{"type":"Point","coordinates":[-123.36143224399996,48.47028295900003]},"properties":{"id":280,"countID":5,"onStreet":"Lochside Regional Trail","location":"South","xStreet":"McKenzie Ave","countDirec":"NS","Month":1,"Year":2015,"peakHour":95}},
{"type":"Feature","geometry":{"type":"Point","coordinates":[-123.36282109999996,48.41985707500004]},"properties":{"id":281,"countID":15,"onStreet":"Humboldt St","location":"East","xStreet":"Blanshard St","countDirec":"EW","Month":1,"Year":2015,"peakHour":33}},
{"type":"Feature","geometry":{"type":"Point","coordinates":[-123.36180267399999,48.50112326000004]},"properties":{"id":282,"countID":22,"onStreet":"Lochside Dr","location":"South","xStreet":"Royal Oak Dr","countDirec":"NS","Month":1,"Year":2015,"peakHour":37}},
{"type":"Feature","geometry":{"type":"Point","coordinates":[-123.37727128899996,48.457034287000056]},"properties":{"id":283,"countID":31,"onStreet":"Lochside Regional Trail","location":"North","xStreet":"Switch Bridge","countDirec":"NS","Month":1,"Year":2015,"peakHour":184}},
{"type":"Feature","geometry":{"type":"Point","coordinates":[-123.37839444499997,48.45629315900004]},"properties":{"id":284,"countID":32,"onStreet":"Galloping Goose Regional Trail","location":"North","xStreet":"Crease Rd","countDirec":"EW","Month":1,"Year":2015,"peakHour":171}},
{"type":"Feature","geometry":{"type":"Point","coordinates":[-123.41763092899998,48.43683759600003]},"properties":{"id":285,"countID":33,"onStreet":"Admirals Rd","location":"South","xStreet":"Colville Rd","countDirec":"NS","Month":1,"Year":2015,"peakHour":84}},
{"type":"Feature","geometry":{"type":"Point","coordinates":[-123.46834573999996,48.44551078400008]},"properties":{"id":286,"countID":39,"onStreet":"Wale Rd","location":"West","xStreet":"Island Hwy","countDirec":"EW","Month":1,"Year":2015,"peakHour":16}},
{"type":"Feature","geometry":{"type":"Point","coordinates":[-123.45482807499997,48.460937873000034]},"properties":{"id":287,"countID":43,"onStreet":"Galloping Goose Regional Trail","location":"South","xStreet":"E&N Rail Trail","countDirec":"EW","Month":1,"Year":2015,"peakHour":82}},
{"type":"Feature","geometry":{"type":"Point","coordinates":[-123.32223273499994,48.43221492200007]},"properties":{"id":288,"countID":57,"onStreet":"Cadboro Bay Rd","location":"East","xStreet":"Foul Bay Rd","countDirec":"EW","Month":1,"Year":2015,"peakHour":39}},
{"type":"Feature","geometry":{"type":"Point","coordinates":[-123.38871336499994,48.43082210800003]},"properties":{"id":289,"countID":3,"onStreet":"E&N Rail Trail","location":"North","xStreet":"Esquimalt Rd","countDirec":"NS","Month":1,"Year":2015,"peakHour":2}},
{"type":"Feature","geometry":{"type":"Point","coordinates":[-123.36732099299996,48.43554077300007]},"properties":{"id":290,"countID":9,"onStreet":"Government St","location":"South","xStreet":"Bay St","countDirec":"NS","Month":1,"Year":2015,"peakHour":42}},
{"type":"Feature","geometry":{"type":"Point","coordinates":[-123.36532232199994,48.43546488900006]},"properties":{"id":291,"countID":10,"onStreet":"Douglas St","location":"South","xStreet":"Bay St","countDirec":"NS","Month":1,"Year":2015,"peakHour":50}},
{"type":"Feature","geometry":{"type":"Point","coordinates":[-123.36285683699998,48.43500422200003]},"properties":{"id":292,"countID":11,"onStreet":"Blanshard St","location":"South","xStreet":"Bay St","countDirec":"NS","Month":1,"Year":2015,"peakHour":51}},
{"type":"Feature","geometry":{"type":"Point","coordinates":[-123.32230939799996,48.42645981600003]},"properties":{"id":293,"countID":18,"onStreet":"Oak Bay Ave","location":"East","xStreet":"Foul Bay Rd","countDirec":"EW","Month":1,"Year":2015,"peakHour":33}},
{"type":"Feature","geometry":{"type":"Point","coordinates":[-123.36082883499995,48.42765657900003]},"properties":{"id":294,"countID":28,"onStreet":"Pandora St","location":"East","xStreet":"Blanshard St","countDirec":"EW","Month":1,"Year":2015,"peakHour":31}},
{"type":"Feature","geometry":{"type":"Point","coordinates":[-123.36092180999998,48.42676189800005]},"properties":{"id":295,"countID":29,"onStreet":"Johnson St","location":"East","xStreet":"Blanshard St","countDirec":"EW","Month":1,"Year":2015,"peakHour":62}},
{"type":"Feature","geometry":{"type":"Point","coordinates":[-123.36883685199996,48.42103860100008]},"properties":{"id":296,"countID":30,"onStreet":"Government St","location":"North","xStreet":"Belleville St","countDirec":"NS","Month":1,"Year":2015,"peakHour":90}},
{"type":"Feature","geometry":{"type":"Point","coordinates":[-123.31568390899997,48.45844384000003]},"properties":{"id":297,"countID":16,"onStreet":"Henderson Rd","location":"South","xStreet":"Cedar Hill Cross Rd","countDirec":"NS","Month":1,"Year":2015,"peakHour":95}},
{"type":"Feature","geometry":{"type":"Point","coordinates":[-123.33605661499996,48.42696300100005]},"properties":{"id":298,"countID":20,"onStreet":"Fort St","location":"North","xStreet":"Oak Bay Ave","countDirec":"EW","Month":1,"Year":2015,"peakHour":52}},
{"type":"Feature","geometry":{"type":"Point","coordinates":[-123.31447473299994,48.460206665000044]},"properties":{"id":299,"countID":45,"onStreet":"University Dr","location":"South","xStreet":"Ring Rd","countDirec":"NS","Month":1,"Year":2015,"peakHour":100}},
{"type":"Feature","geometry":{"type":"Point","coordinates":[-123.38871336499994,48.43082210800003]},"properties":{"id":300,"countID":3,"onStreet":"E&N Rail Trail","location":"North","xStreet":"Esquimalt Rd","countDirec":"NS","Month":5,"Year":2015,"peakHour":4}},
{"type":"Feature","geometry":{"type":"Point","coordinates":[-123.33605661499996,48.42696300100005]},"properties":{"id":301,"countID":20,"onStreet":"Fort St","location":"North","xStreet":"Oak Bay Ave","countDirec":"EW","Month":5,"Year":2015,"peakHour":81}},
{"type":"Feature","geometry":{"type":"Point","coordinates":[-123.36082883499995,48.42765657900003]},"properties":{"id":302,"countID":28,"onStreet":"Pandora St","location":"East","xStreet":"Blanshard St","countDirec":"EW","Month":5,"Year":2015,"peakHour":93}},
{"type":"Feature","geometry":{"type":"Point","coordinates":[-123.36092180999998,48.42676189800005]},"properties":{"id":303,"countID":29,"onStreet":"Johnson St","location":"East","xStreet":"Blanshard St","countDirec":"EW","Month":5,"Year":2015,"peakHour":82}},
{"type":"Feature","geometry":{"type":"Point","coordinates":[-123.36883685199996,48.42103860100008]},"properties":{"id":304,"countID":30,"onStreet":"Government St","location":"North","xStreet":"Belleville St","countDirec":"NS","Month":5,"Year":2015,"peakHour":122}},
{"type":"Feature","geometry":{"type":"Point","coordinates":[-123.45482807499997,48.460937873000034]},"properties":{"id":305,"countID":43,"onStreet":"Galloping Goose Regional Trail","location":"South","xStreet":"E&N Rail Trail","countDirec":"EW","Month":5,"Year":2015,"peakHour":48}},
{"type":"Feature","geometry":{"type":"Point","coordinates":[-123.70094830699998,48.38740964300007]},"properties":{"id":306,"countID":46,"onStreet":"Sooke Rd","location":"West","xStreet":"Sooke River Rd","countDirec":"EW","Month":5,"Year":2015,"peakHour":6}},
{"type":"Feature","geometry":{"type":"Point","coordinates":[-123.35286672199999,48.42713086600003]},"properties":{"id":307,"countID":52,"onStreet":"Pandora Ave","location":"East","xStreet":"Cook St","countDirec":"EW","Month":5,"Year":2015,"peakHour":60}},
{"type":"Feature","geometry":{"type":"Point","coordinates":[-123.36143224399996,48.47028295900003]},"properties":{"id":308,"countID":5,"onStreet":"Lochside Regional Trail","location":"South","xStreet":"McKenzie Ave","countDirec":"NS","Month":5,"Year":2015,"peakHour":196}},
{"type":"Feature","geometry":{"type":"Point","coordinates":[-123.43149381699999,48.45175934700006]},"properties":{"id":309,"countID":7,"onStreet":"E&N Rail Trail","location":"South","xStreet":"Portage Park Trail","countDirec":"NS","Month":5,"Year":2015,"peakHour":83}},
{"type":"Feature","geometry":{"type":"Point","coordinates":[-123.36732099299996,48.43554077300007]},"properties":{"id":310,"countID":9,"onStreet":"Government St","location":"South","xStreet":"Bay St","countDirec":"NS","Month":5,"Year":2015,"peakHour":43}},
{"type":"Feature","geometry":{"type":"Point","coordinates":[-123.36532232199994,48.43546488900006]},"properties":{"id":311,"countID":10,"onStreet":"Douglas St","location":"South","xStreet":"Bay St","countDirec":"NS","Month":5,"Year":2015,"peakHour":39}},
{"type":"Feature","geometry":{"type":"Point","coordinates":[-123.35698388699996,48.42345927000008]},"properties":{"id":312,"countID":14,"onStreet":"Vancouver St","location":"South","xStreet":"Fort St","countDirec":"NS","Month":5,"Year":2015,"peakHour":92}},
{"type":"Feature","geometry":{"type":"Point","coordinates":[-123.31568390899997,48.45844384000003]},"properties":{"id":313,"countID":16,"onStreet":"Henderson Rd","location":"South","xStreet":"Cedar Hill Cross Rd","countDirec":"NS","Month":5,"Year":2015,"peakHour":126}},
{"type":"Feature","geometry":{"type":"Point","coordinates":[-123.31869200199998,48.46852549000005]},"properties":{"id":314,"countID":17,"onStreet":"McKenzie Ave","location":"East","xStreet":"Gordon Head Rd","countDirec":"EW","Month":5,"Year":2015,"peakHour":66}},
{"type":"Feature","geometry":{"type":"Point","coordinates":[-123.36180267399999,48.50112326000004]},"properties":{"id":315,"countID":22,"onStreet":"Lochside Dr","location":"South","xStreet":"Royal Oak Dr","countDirec":"NS","Month":5,"Year":2015,"peakHour":85}},
{"type":"Feature","geometry":{"type":"Point","coordinates":[-123.33275729999997,48.468277681000075]},"properties":{"id":316,"countID":34,"onStreet":"Shelbourne St","location":"South","xStreet":"McKenzie Ave","countDirec":"NS","Month":5,"Year":2015,"peakHour":29}},
{"type":"Feature","geometry":{"type":"Point","coordinates":[-123.33140648399996,48.468595976000074]},"properties":{"id":317,"countID":35,"onStreet":"McKenzie Ave","location":"East","xStreet":"Shelbourne St","countDirec":"EW","Month":5,"Year":2015,"peakHour":67}},
{"type":"Feature","geometry":{"type":"Point","coordinates":[-123.42401988499995,48.45064374800006]},"properties":{"id":318,"countID":41,"onStreet":"Craigflower Rd","location":"East","xStreet":"Admirals Rd","countDirec":"EW","Month":5,"Year":2015,"peakHour":23}},
{"type":"Feature","geometry":{"type":"Point","coordinates":[-123.35739819599996,48.423781673000065]},"properties":{"id":319,"countID":50,"onStreet":"Fort St","location":"West","xStreet":"Vancouver St","countDirec":"EW","Month":5,"Year":2015,"peakHour":90}},
{"type":"Feature","geometry":{"type":"Point","coordinates":[-123.31447473299994,48.460206665000044]},"properties":{"id":320,"countID":45,"onStreet":"University Dr","location":"South","xStreet":"Ring Rd","countDirec":"NS","Month":5,"Year":2015,"peakHour":115}},
{"type":"Feature","geometry":{"type":"Point","coordinates":[-123.36285683699998,48.43500422200003]},"properties":{"id":321,"countID":11,"onStreet":"Blanshard St","location":"South","xStreet":"Bay St","countDirec":"NS","Month":5,"Year":2015,"peakHour":48}},
{"type":"Feature","geometry":{"type":"Point","coordinates":[-123.33922351199999,48.43614739000003]},"properties":{"id":322,"countID":12,"onStreet":"Haultain St","location":"West","xStreet":"Forbes St","countDirec":"EW","Month":5,"Year":2015,"peakHour":99}},
{"type":"Feature","geometry":{"type":"Point","coordinates":[-123.35749773599997,48.40790452600004]},"properties":{"id":323,"countID":19,"onStreet":"Dallas Rd","location":"East","xStreet":"Cook St","countDirec":"EW","Month":5,"Year":2015,"peakHour":86}},
{"type":"Feature","geometry":{"type":"Point","coordinates":[-123.41633158599996,48.66236781500004]},"properties":{"id":324,"countID":24,"onStreet":"Lochside Regional Trail","location":"South","xStreet":"Ardwell Ave","countDirec":"NS","Month":5,"Year":2015,"peakHour":47}},
{"type":"Feature","geometry":{"type":"Point","coordinates":[-123.41763092899998,48.43683759600003]},"properties":{"id":325,"countID":33,"onStreet":"Admirals Rd","location":"South","xStreet":"Colville Rd","countDirec":"NS","Month":5,"Year":2015,"peakHour":69}},
{"type":"Feature","geometry":{"type":"Point","coordinates":[-123.45482807499997,48.460937873000034]},"properties":{"id":326,"countID":43,"onStreet":"Galloping Goose Regional Trail","location":"South","xStreet":"E&N Rail Trail","countDirec":"EW","Month":5,"Year":2015,"peakHour":118}},
{"type":"Feature","geometry":{"type":"Point","coordinates":[-123.32223273499994,48.43221492200007]},"properties":{"id":327,"countID":57,"onStreet":"Cadboro Bay Rd","location":"East","xStreet":"Foul Bay Rd","countDirec":"EW","Month":5,"Year":2015,"peakHour":50}},
{"type":"Feature","geometry":{"type":"Point","coordinates":[-123.43149381699999,48.45175934700006]},"properties":{"id":328,"countID":7,"onStreet":"E&N Rail Trail","location":"South","xStreet":"Portage Park Trail","countDirec":"NS","Month":7,"Year":2015,"peakHour":165}},
{"type":"Feature","geometry":{"type":"Point","coordinates":[-123.36532232199994,48.43546488900006]},"properties":{"id":329,"countID":10,"onStreet":"Douglas St","location":"South","xStreet":"Bay St","countDirec":"NS","Month":7,"Year":2015,"peakHour":44}},
{"type":"Feature","geometry":{"type":"Point","coordinates":[-123.40032711099997,48.64379897800006]},"properties":{"id":330,"countID":23,"onStreet":"Fifth St","location":"South","xStreet":"Ocean Ave","countDirec":"NS","Month":7,"Year":2015,"peakHour":23}},
{"type":"Feature","geometry":{"type":"Point","coordinates":[-123.36082883499995,48.42765657900003]},"properties":{"id":331,"countID":28,"onStreet":"Pandora St","location":"East","xStreet":"Blanshard St","countDirec":"EW","Month":7,"Year":2015,"peakHour":82}},
{"type":"Feature","geometry":{"type":"Point","coordinates":[-123.36092180999998,48.42676189800005]},"properties":{"id":332,"countID":29,"onStreet":"Johnson St","location":"East","xStreet":"Blanshard St","countDirec":"EW","Month":7,"Year":2015,"peakHour":115}},
{"type":"Feature","geometry":{"type":"Point","coordinates":[-123.36883685199996,48.42103860100008]},"properties":{"id":333,"countID":30,"onStreet":"Government St","location":"North","xStreet":"Belleville St","countDirec":"NS","Month":7,"Year":2015,"peakHour":212}},
{"type":"Feature","geometry":{"type":"Point","coordinates":[-123.45482807499997,48.460937873000034]},"properties":{"id":334,"countID":43,"onStreet":"Galloping Goose Regional Trail","location":"South","xStreet":"E&N Rail Trail","countDirec":"EW","Month":7,"Year":2015,"peakHour":166}},
{"type":"Feature","geometry":{"type":"Point","coordinates":[-123.35286672199999,48.42713086600003]},"properties":{"id":335,"countID":52,"onStreet":"Pandora Ave","location":"East","xStreet":"Cook St","countDirec":"EW","Month":7,"Year":2015,"peakHour":29}},
{"type":"Feature","geometry":{"type":"Point","coordinates":[-123.32223273499994,48.43221492200007]},"properties":{"id":336,"countID":57,"onStreet":"Cadboro Bay Rd","location":"East","xStreet":"Foul Bay Rd","countDirec":"EW","Month":7,"Year":2015,"peakHour":57}},
{"type":"Feature","geometry":{"type":"Point","coordinates":[-123.43149381699999,48.45175934700006]},"properties":{"id":337,"countID":7,"onStreet":"E&N Rail Trail","location":"South","xStreet":"Portage Park Trail","countDirec":"NS","Month":10,"Year":2015,"peakHour":94}},
{"type":"Feature","geometry":{"type":"Point","coordinates":[-123.36532232199994,48.43546488900006]},"properties":{"id":338,"countID":10,"onStreet":"Douglas St","location":"South","xStreet":"Bay St","countDirec":"NS","Month":10,"Year":2015,"peakHour":24}},
{"type":"Feature","geometry":{"type":"Point","coordinates":[-123.31568390899997,48.45844384000003]},"properties":{"id":339,"countID":16,"onStreet":"Henderson Rd","location":"South","xStreet":"Cedar Hill Cross Rd","countDirec":"NS","Month":10,"Year":2015,"peakHour":224}},
{"type":"Feature","geometry":{"type":"Point","coordinates":[-123.31869200199998,48.46852549000005]},"properties":{"id":340,"countID":17,"onStreet":"McKenzie Ave","location":"East","xStreet":"Gordon Head Rd","countDirec":"EW","Month":10,"Year":2015,"peakHour":98}},
{"type":"Feature","geometry":{"type":"Point","coordinates":[-123.33605661499996,48.42696300100005]},"properties":{"id":341,"countID":20,"onStreet":"Fort St","location":"North","xStreet":"Oak Bay Ave","countDirec":"EW","Month":10,"Year":2015,"peakHour":111}},
{"type":"Feature","geometry":{"type":"Point","coordinates":[-123.46834573999996,48.44551078400008]},"properties":{"id":342,"countID":39,"onStreet":"Wale Rd","location":"West","xStreet":"Island Hwy","countDirec":"EW","Month":10,"Year":2015,"peakHour":36}},
{"type":"Feature","geometry":{"type":"Point","coordinates":[-123.35497457499997,48.41795433200008]},"properties":{"id":343,"countID":53,"onStreet":"Fairfield Rd","location":"East","xStreet":"Cook St","countDirec":"EW","Month":10,"Year":2015,"peakHour":46}},
{"type":"Feature","geometry":{"type":"Point","coordinates":[-123.31447473299994,48.460206665000044]},"properties":{"id":344,"countID":45,"onStreet":"University Dr","location":"South","xStreet":"Ring Rd","countDirec":"NS","Month":10,"Year":2015,"peakHour":226}},
{"type":"Feature","geometry":{"type":"Point","coordinates":[-123.44603987299996,48.46464479800005]},"properties":{"id":345,"countID":58,"onStreet":"Galloping Goose","location":"East","xStreet":"Burnside Rd W","countDirec":"EW","Month":10,"Year":2015,"peakHour":91}},
{"type":"Feature","geometry":{"type":"Point","coordinates":[-123.36989579599998,48.425532013000065]},"properties":{"id":346,"countID":1,"onStreet":"Wharf St","location":"North","xStreet":"Fort St","countDirec":"NS","Month":10,"Year":2015,"peakHour":207}},
{"type":"Feature","geometry":{"type":"Point","coordinates":[-123.36143224399996,48.47028295900003]},"properties":{"id":347,"countID":5,"onStreet":"Lochside Regional Trail","location":"South","xStreet":"McKenzie Ave","countDirec":"NS","Month":10,"Year":2015,"peakHour":101}},
{"type":"Feature","geometry":{"type":"Point","coordinates":[-123.33922351199999,48.43614739000003]},"properties":{"id":348,"countID":12,"onStreet":"Haultain St","location":"West","xStreet":"Forbes St","countDirec":"EW","Month":10,"Year":2015,"peakHour":69}},
{"type":"Feature","geometry":{"type":"Point","coordinates":[-123.35749773599997,48.40790452600004]},"properties":{"id":349,"countID":19,"onStreet":"Dallas Rd","location":"East","xStreet":"Cook St","countDirec":"EW","Month":10,"Year":2015,"peakHour":14}},
{"type":"Feature","geometry":{"type":"Point","coordinates":[-123.33298717799994,48.45890960400004]},"properties":{"id":350,"countID":36,"onStreet":"Shelbourne St","location":"North","xStreet":"Pear St","countDirec":"NS","Month":10,"Year":2015,"peakHour":20}},
{"type":"Feature","geometry":{"type":"Point","coordinates":[-123.45482807499997,48.460937873000034]},"properties":{"id":351,"countID":43,"onStreet":"Galloping Goose Regional Trail","location":"South","xStreet":"E&N Rail Trail","countDirec":"EW","Month":10,"Year":2015,"peakHour":108}},
{"type":"Feature","geometry":{"type":"Point","coordinates":[-123.36063761499997,48.47177904800003]},"properties":{"id":352,"countID":49,"onStreet":"Lochside Regional Trail","location":"North","xStreet":"Cedar Hill Cross Rd","countDirec":"NS","Month":10,"Year":2015,"peakHour":67}},
{"type":"Feature","geometry":{"type":"Point","coordinates":[-123.33275729999997,48.468277681000075]},"properties":{"id":353,"countID":34,"onStreet":"Shelbourne St","location":"South","xStreet":"McKenzie Ave","countDirec":"NS","Month":10,"Year":2015,"peakHour":18}},
{"type":"Feature","geometry":{"type":"Point","coordinates":[-123.33140648399996,48.468595976000074]},"properties":{"id":354,"countID":35,"onStreet":"McKenzie Ave","location":"East","xStreet":"Shelbourne St","countDirec":"EW","Month":10,"Year":2015,"peakHour":69}},
{"type":"Feature","geometry":{"type":"Point","coordinates":[-123.42401988499995,48.45064374800006]},"properties":{"id":355,"countID":41,"onStreet":"Craigflower Rd","location":"East","xStreet":"Admirals Rd","countDirec":"EW","Month":10,"Year":2015,"peakHour":18}},
{"type":"Feature","geometry":{"type":"Point","coordinates":[-123.36989579599998,48.425532013000065]},"properties":{"id":356,"countID":1,"onStreet":"Wharf St","location":"North","xStreet":"Fort St","countDirec":"NS","Month":5,"Year":2016,"peakHour":244}},
{"type":"Feature","geometry":{"type":"Point","coordinates":[-123.37208228399999,48.42804025500004]},"properties":{"id":357,"countID":2,"onStreet":"Johnson St Bridge","location":"West","xStreet":"Wharf St","countDirec":"EW","Month":5,"Year":2016,"peakHour":480}},
{"type":"Feature","geometry":{"type":"Point","coordinates":[-123.38871336499994,48.43082210800003]},"properties":{"id":358,"countID":3,"onStreet":"E&N Rail Trail","location":"North","xStreet":"Esquimalt Rd","countDirec":"NS","Month":5,"Year":2016,"peakHour":61}},
{"type":"Feature","geometry":{"type":"Point","coordinates":[-123.36143224399996,48.47028295900003]},"properties":{"id":359,"countID":5,"onStreet":"Lochside Regional Trail","location":"South","xStreet":"McKenzie Ave","countDirec":"NS","Month":5,"Year":2016,"peakHour":172}},
{"type":"Feature","geometry":{"type":"Point","coordinates":[-123.33922351199999,48.43614739000003]},"properties":{"id":360,"countID":12,"onStreet":"Haultain St","location":"West","xStreet":"Forbes St","countDirec":"EW","Month":5,"Year":2016,"peakHour":125}},
{"type":"Feature","geometry":{"type":"Point","coordinates":[-123.40729603799997,48.42964775100006]},"properties":{"id":361,"countID":40,"onStreet":"Esquimalt Rd","location":"West","xStreet":"Lampson St","countDirec":"EW","Month":5,"Year":2016,"peakHour":65}},
{"type":"Feature","geometry":{"type":"Point","coordinates":[-123.45482807499997,48.460937873000034]},"properties":{"id":362,"countID":43,"onStreet":"Galloping Goose Regional Trail","location":"South","xStreet":"E&N Rail Trail","countDirec":"EW","Month":5,"Year":2016,"peakHour":176}},
{"type":"Feature","geometry":{"type":"Point","coordinates":[-123.36303729399998,48.46796744800008]},"properties":{"id":363,"countID":48,"onStreet":"Lochside Regional Trail","location":"South","xStreet":"Quadra St","countDirec":"NS","Month":5,"Year":2016,"peakHour":167}},
{"type":"Feature","geometry":{"type":"Point","coordinates":[-123.32223273499994,48.43221492200007]},"properties":{"id":364,"countID":57,"onStreet":"Cadboro Bay Rd","location":"East","xStreet":"Foul Bay Rd","countDirec":"EW","Month":5,"Year":2016,"peakHour":58}},
{"type":"Feature","geometry":{"type":"Point","coordinates":[-123.43149381699999,48.45175934700006]},"properties":{"id":365,"countID":7,"onStreet":"E&N Rail Trail","location":"South","xStreet":"Portage Park Trail","countDirec":"NS","Month":5,"Year":2016,"peakHour":167}},
{"type":"Feature","geometry":{"type":"Point","coordinates":[-123.38293690399996,48.43761650300007]},"properties":{"id":366,"countID":8,"onStreet":"Galloping Goose Regional Trail","location":"South","xStreet":"Selkirk Trestle","countDirec":"NS","Month":5,"Year":2016,"peakHour":332}},
{"type":"Feature","geometry":{"type":"Point","coordinates":[-123.35413739399996,48.42312659400005]},"properties":{"id":367,"countID":13,"onStreet":"Cook St","location":"South","xStreet":"Fort St","countDirec":"NS","Month":5,"Year":2016,"peakHour":50}},
{"type":"Feature","geometry":{"type":"Point","coordinates":[-123.35698388699996,48.42345927000008]},"properties":{"id":368,"countID":14,"onStreet":"Vancouver St","location":"South","xStreet":"Fort St","countDirec":"NS","Month":5,"Year":2016,"peakHour":95}},
{"type":"Feature","geometry":{"type":"Point","coordinates":[-123.36282109999996,48.41985707500004]},"properties":{"id":369,"countID":15,"onStreet":"Humboldt St","location":"East","xStreet":"Blanshard St","countDirec":"EW","Month":5,"Year":2016,"peakHour":44}},
{"type":"Feature","geometry":{"type":"Point","coordinates":[-123.35749773599997,48.40790452600004]},"properties":{"id":370,"countID":19,"onStreet":"Dallas Rd","location":"East","xStreet":"Cook St","countDirec":"EW","Month":5,"Year":2016,"peakHour":46}},
{"type":"Feature","geometry":{"type":"Point","coordinates":[-123.40032711099997,48.64379897800006]},"properties":{"id":371,"countID":23,"onStreet":"Fifth St","location":"South","xStreet":"Ocean Ave","countDirec":"NS","Month":5,"Year":2016,"peakHour":59}},
{"type":"Feature","geometry":{"type":"Point","coordinates":[-123.35445430899995,48.41958585700007]},"properties":{"id":372,"countID":27,"onStreet":"Richardson St","location":"East","xStreet":"Cook St","countDirec":"EW","Month":5,"Year":2016,"peakHour":64}},
{"type":"Feature","geometry":{"type":"Point","coordinates":[-123.33298717799994,48.45890960400004]},"properties":{"id":373,"countID":36,"onStreet":"Shelbourne St","location":"North","xStreet":"Pear St","countDirec":"NS","Month":5,"Year":2016,"peakHour":21}},
{"type":"Feature","geometry":{"type":"Point","coordinates":[-123.38809107199995,48.46725218900008]},"properties":{"id":374,"countID":47,"onStreet":"Glanford Ave","location":"North","xStreet":"McKenzie Ave","countDirec":"NS","Month":5,"Year":2016,"peakHour":21}},
{"type":"Feature","geometry":{"type":"Point","coordinates":[-123.35739819599996,48.423781673000065]},"properties":{"id":375,"countID":50,"onStreet":"Fort St","location":"West","xStreet":"Vancouver St","countDirec":"EW","Month":5,"Year":2016,"peakHour":77}},
{"type":"Feature","geometry":{"type":"Point","coordinates":[-123.35497457499997,48.41795433200008]},"properties":{"id":376,"countID":53,"onStreet":"Fairfield Rd","location":"East","xStreet":"Cook St","countDirec":"EW","Month":5,"Year":2016,"peakHour":44}},