{"type":"FeatureCollection","crs":{"type":"name","properties":{"name":"urn:ogc:def:crs:OGC:1.3:CRS84"}},"features":[{"type":"Feature","properties":{"id":24,"countID":2,"onStreet":"Johnson St Bridge","location":"W","xStreet":"Wharf St","countDirection":"EW","Month":5,"Year":2017,"peakHour":510},"geometry":{"type":"Point","coordinates":[-123.37206702285776,48.428034713854494]}},{"type":"Feature","properties":{"id":44,"countID":3,"onStreet":"E&N Rail Trail","location":"N","xStreet":"Esquimalt Rd","countDirection":"NS","Month":5,"Year":2017,"peakHour":55},"geometry":{"type":"Point","coordinates":[-123.38869810027232,48.430816568151975]}},{"type":"Feature","properties":{"id":64,"countID":4,"onStreet":"Galloping Goose Regional Trail","location":"S","xStreet":"Information Booth at Switch Bridge","countDirection":"NS","Month":5,"Year":2017,"peakHour":463},"geometry":{"type":"Point","coordinates":[-123.37754441076837,48.45557214844046]}},{"type":"Feature","properties":{"id":84,"countID":5,"onStreet":"Lochside Regional Trail","location":"S","xStreet":"McKenzie Ave","countDirection":"NS","Month":5,"Year":2017,"peakHour":184},"geometry":{"type":"Point","coordinates":[-123.36141697354498,48.470277414630445]}},{"type":"Feature","properties":{"id":104,"countID":6,"onStreet":"Interuban Rd","location":"N","xStreet":"Burnside Rd W","countDirection":"NS","Month":5,"Year":2017,"peakHour":57},"geometry":{"type":"Point","coordinates":[-123.39449549745305,48.45920330553605]}},{"type":"Feature","properties":{"id":116,"countID":7,"onStreet":"E&N Rail Trail","location":"S","xStreet":"Portage Park Trail","countDirection":"NS","Month":5,"Year":2017,"peakHour":150},"geometry":{"type":"Point","coordinates":[-123.43147854051468,48.45175381135078]}},{"type":"Feature","properties":{"id":136,"countID":8,"onStreet":"Galloping Goose Regional Trail","location":"S","xStreet":"Selkirk Trestle","countDirection":"NS","Month":5,"Year":2017,"peakHour":353},"geometry":{"type":"Point","coordinates":[-123.38292163826003,48.437610962862614]}},{"type":"Feature","properties":{"id":156,"countID":9,"onStreet":"Government St","location":"S","xStreet":"Bay St","countDirection":"NS","Month":5,"Year":2017,"peakHour":61},"geometry":{"type":"Point","coordinates":[-123.36730572991469,48.43553523099169]}},{"type":"Feature","properties":{"id":176,"countID":10,"onStreet":"Douglas St","location":"S","xStreet":"Bay St","countDirection":"NS","Month":5,"Year":2017,"peakHour":39},"geometry":{"type":"Point","coordinates":[-123.36530705951395,48.43545934678906]}},{"type":"Feature","properties":{"id":196,"countID":11,"onStreet":"Blanshard St","location":"S","xStreet":"Bay St","countDirection":"NS","Month":5,"Year":2017,"peakHour":70},"geometry":{"type":"Point","coordinates":[-123.362841575443,48.43499867900939]}},{"type":"Feature","properties":{"id":216,"countID":12,"onStreet":"Haultain St","location":"W","xStreet":"Forbes St","countDirection":"EW","Month":5,"Year":2017,"peakHour":136},"geometry":{"type":"Point","coordinates":[-123.33920825298077,48.43614184489773]}},{"type":"Feature","properties":{"id":236,"countID":13,"onStreet":"Cook St","location":"S","xStreet":"Fort St","countDirection":"NS","Month":5,"Year":2017,"peakHour":62},"geometry":{"type":"Point","coordinates":[-123.35412213668138,48.42312105057403]}},{"type":"Feature","properties":{"id":256,"countID":14,"onStreet":"Vancouver St","location":"S","xStreet":"Fort St","countDirection":"NS","Month":5,"Year":2017,"peakHour":98},"geometry":{"type":"Point","coordinates":[-123.3569686289131,48.423453727399675]}},{"type":"Feature","properties":{"id":276,"countID":15,"onStreet":"Humboldt St","location":"E","xStreet":"Blanshard St","countDirection":"EW","Month":5,"Year":2017,"peakHour":55},"geometry":{"type":"Point","coordinates":[-123.3628058423323,48.41985153295985]}},{"type":"Feature","properties":{"id":296,"countID":16,"onStreet":"Henderson Rd","location":"S","xStreet":"Cedar Hill Cross Rd","countDirection":"NS","Month":5,"Year":2017,"peakHour":142},"geometry":{"type":"Point","coordinates":[-123.3156686484403,48.458438290730996]}},{"type":"Feature","properties":{"id":304,"countID":18,"onStreet":"Oak Bay Ave","location":"E","xStreet":"Foul Bay Rd","countDirection":"EW","Month":5,"Year":2017,"peakHour":38},"geometry":{"type":"Point","coordinates":[-123.32229414501802,48.42645426891452]}},{"type":"Feature","properties":{"id":324,"countID":19,"onStreet":"Dallas Rd","location":"E","xStreet":"Cook St","countDirection":"EW","Month":5,"Year":2017,"peakHour":52},"geometry":{"type":"Point","coordinates":[-123.35748248190215,48.407898983825916]}},{"type":"Feature","properties":{"id":336,"countID":20,"onStreet":"Fort St","location":"N","xStreet":"Oak Bay Ave","countDirection":"EW","Month":5,"Year":2017,"peakHour":89},"geometry":{"type":"Point","coordinates":[-123.33604135970207,48.42695745577476]}},{"type":"Feature","properties":{"id":356,"countID":21,"onStreet":"Galloping Goose Regional Trail","location":"N","xStreet":"Sooke Rd","countDirection":"EW","Month":5,"Year":2017,"peakHour":3},"geometry":{"type":"Point","coordinates":[-123.65353014212657,48.39447992556414]}},{"type":"Feature","properties":{"id":368,"countID":22,"onStreet":"Lochside Dr","location":"S","xStreet":"Royal Oak Dr","countDirection":"NS","Month":5,"Year":2017,"peakHour":48},"geometry":{"type":"Point","coordinates":[-123.36178739518392,48.50111771365756]}},{"type":"Feature","properties":{"id":376,"countID":23,"onStreet":"Fifth St","location":"S","xStreet":"Ocean Ave","countDirection":"NS","Month":5,"Year":2017,"peakHour":36},"geometry":{"type":"Point","coordinates":[-123.40031178925264,48.643793429812156]}},{"type":"Feature","properties":{"id":396,"countID":24,"onStreet":"Lochside Regional Trail","location":"S","xStreet":"Ardwell Ave","countDirection":"NS","Month":5,"Year":2017,"peakHour":43},"geometry":{"type":"Point","coordinates":[-123.41631625673523,48.66236226763453]}},{"type":"Feature","properties":{"id":415,"countID":27,"onStreet":"Richardson St","location":"E","xStreet":"Cook St","countDirection":"EW","Month":5,"Year":2017,"peakHour":61},"geometry":{"type":"Point","coordinates":[-123.3544390519858,48.41958031408161]}},{"type":"Feature","properties":{"id":435,"countID":28,"onStreet":"Pandora St","location":"E","xStreet":"Blanshard St","countDirection":"EW","Month":5,"Year":2017,"peakHour":179},"geometry":{"type":"Point","coordinates":[-123.36081357555369,48.42765103630389]}},{"type":"Feature","properties":{"id":457,"countID":29,"onStreet":"Johnson St","location":"E","xStreet":"Blanshard St","countDirection":"EW","Month":5,"Year":2017,"peakHour":86},"geometry":{"type":"Point","coordinates":[-123.36090655020497,48.42675635586537]}},{"type":"Feature","properties":{"id":475,"countID":30,"onStreet":"Government St","location":"N","xStreet":"Belleville St","countDirection":"NS","Month":5,"Year":2017,"peakHour":150},"geometry":{"type":"Point","coordinates":[-123.36882159305416,48.42103305994022]}},{"type":"Feature","properties":{"id":495,"countID":31,"onStreet":"Lochside Regional Trail","location":"N","xStreet":"Switch Bridge","countDirection":"NS","Month":5,"Year":2017,"peakHour":278},"geometry":{"type":"Point","coordinates":[-123.37725601885208,48.457028744701375]}},{"type":"Feature","properties":{"id":515,"countID":32,"onStreet":"Galloping Goose Regional Trail","location":"N","xStreet":"Crease Rd","countDirection":"EW","Month":5,"Year":2017,"peakHour":237},"geometry":{"type":"Point","coordinates":[-123.37837917500114,48.456287616850915]}},{"type":"Feature","properties":{"id":535,"countID":33,"onStreet":"Admirals Rd","location":"S","xStreet":"Colville Rd","countDirection":"NS","Month":5,"Year":2017,"peakHour":75},"geometry":{"type":"Point","coordinates":[-123.41761565791393,48.43683205989453]}},{"type":"Feature","properties":{"id":547,"countID":34,"onStreet":"Shelbourne St","location":"S","xStreet":"McKenzie Ave","countDirection":"NS","Month":5,"Year":2017,"peakHour":26},"geometry":{"type":"Point","coordinates":[-123.33274203450355,48.46827213311002]}},{"type":"Feature","properties":{"id":555,"countID":36,"onStreet":"Shelbourne St","location":"N","xStreet":"Pear St","countDirection":"NS","Month":5,"Year":2017,"peakHour":28},"geometry":{"type":"Point","coordinates":[-123.33297191411926,48.45890405636096]}},{"type":"Feature","properties":{"id":575,"countID":37,"onStreet":"Gorge Rd","location":"W","xStreet":"Jutland Rd","countDirection":"EW","Month":5,"Year":2017,"peakHour":52},"geometry":{"type":"Point","coordinates":[-123.37712788644735,48.442096420009065]}},{"type":"Feature","properties":{"id":595,"countID":38,"onStreet":"Goldstream Ave","location":"W","xStreet":"Veterans Memorial Pky","countDirection":"EW","Month":5,"Year":2017,"peakHour":34},"geometry":{"type":"Point","coordinates":[-123.4965031247219,48.44781268881178]}},{"type":"Feature","properties":{"id":607,"countID":39,"onStreet":"Wale Rd","location":"W","xStreet":"Island Hwy","countDirection":"EW","Month":5,"Year":2017,"peakHour":33},"geometry":{"type":"Point","coordinates":[-123.46833045880253,48.445505252474725]}},{"type":"Feature","properties":{"id":619,"countID":40,"onStreet":"Esquimalt Rd","location":"W","xStreet":"Lampson St","countDirection":"EW","Month":5,"Year":2017,"peakHour":60},"geometry":{"type":"Point","coordinates":[-123.40728077044847,48.429642213151084]}},{"type":"Feature","properties":{"id":627,"countID":41,"onStreet":"Craigflower Rd","location":"E","xStreet":"Admirals Rd","countDirection":"EW","Month":5,"Year":2017,"peakHour":31},"geometry":{"type":"Point","coordinates":[-123.42400460998752,48.45063821135261]}},{"type":"Feature","properties":{"id":639,"countID":42,"onStreet":"Sooke Rd","location":"N","xStreet":"Otter Point Rd","countDirection":"EW","Month":5,"Year":2017,"peakHour":8},"geometry":{"type":"Point","coordinates":[-123.72340885352187,48.37771955947984]}},{"type":"Feature","properties":{"id":659,"countID":43,"onStreet":"Galloping Goose Regional Trail","location":"S","xStreet":"E&N Rail Trail","countDirection":"EW","Month":5,"Year":2017,"peakHour":154},"geometry":{"type":"Point","coordinates":[-123.4548127916809,48.4609323392453]}},{"type":"Feature","properties":{"id":667,"countID":44,"onStreet":"West Saanich Rd","location":"N","xStreet":"Wallace Dr","countDirection":"NS","Month":5,"Year":2017,"peakHour":12},"geometry":{"type":"Point","coordinates":[-123.44578410548556,48.57558838461289]}},{"type":"Feature","properties":{"id":687,"countID":45,"onStreet":"University Dr","location":"S","xStreet":"Ring Rd","countDirection":"NS","Month":5,"Year":2017,"peakHour":142},"geometry":{"type":"Point","coordinates":[-123.31445947175575,48.4602011156107]}},{"type":"Feature","properties":{"id":695,"countID":46,"onStreet":"Sooke Rd","location":"W","xStreet":"Sooke River Rd","countDirection":"EW","Month":5,"Year":2017,"peakHour":6},"geometry":{"type":"Point","coordinates":[-123.70093300482644,48.38740414058521]}},{"type":"Feature","properties":{"id":707,"countID":47,"onStreet":"Glanford Ave","location":"N","xStreet":"McKenzie Ave","countDirection":"NS","Month":5,"Year":2017,"peakHour":24},"geometry":{"type":"Point","coordinates":[-123.38807579739172,48.467246648093266]}},{"type":"Feature","properties":{"id":715,"countID":48,"onStreet":"Lochside Regional Trail ","location":"S","xStreet":"Quadra St","countDirection":"NS","Month":5,"Year":2017,"peakHour":194},"geometry":{"type":"Point","coordinates":[-123.36302202331194,48.467961903986996]}},{"type":"Feature","properties":{"id":723,"countID":49,"onStreet":"Lochside Regional Trail","location":"N","xStreet":"Cedar Hill Cross Rd","countDirection":"NS","Month":5,"Year":2017,"peakHour":91},"geometry":{"type":"Point","coordinates":[-123.36062234405433,48.471773503453946]}},{"type":"Feature","properties":{"id":731,"countID":50,"onStreet":"Fort St","location":"W","xStreet":"Vancouver St","countDirection":"EW","Month":5,"Year":2017,"peakHour":68},"geometry":{"type":"Point","coordinates":[-123.35738293741542,48.42377612978392]}},{"type":"Feature","properties":{"id":751,"countID":51,"onStreet":"Lansdowne Rd","location":"W","xStreet":"Richmond Rd","countDirection":"EW","Month":5,"Year":2017,"peakHour":38},"geometry":{"type":"Point","coordinates":[-123.32695254331936,48.44615046724345]}},{"type":"Feature","properties":{"id":763,"countID":52,"onStreet":"Pandora Ave","location":"E","xStreet":"Cook St","countDirection":"EW","Month":5,"Year":2017,"peakHour":79},"geometry":{"type":"Point","coordinates":[-123.35285146351349,48.42712532251511]}},{"type":"Feature","properties":{"id":778,"countID":53,"onStreet":"Fairfield Rd","location":"E","xStreet":"Cook St","countDirection":"EW","Month":5,"Year":2017,"peakHour":53},"geometry":{"type":"Point","coordinates":[-123.35495931815984,48.417948789391936]}},{"type":"Feature","properties":{"id":798,"countID":54,"onStreet":"Shelbourne St","location":"N","xStreet":"Hillside Ave","countDirection":"NS","Month":5,"Year":2017,"peakHour":35},"geometry":{"type":"Point","coordinates":[-123.33329006575971,48.445801702229375]}},{"type":"Feature","properties":{"id":9227,"countID":35,"onStreet":"McKenzie Ave","location":"E","xStreet":"Shelbourne St","countDirection":"EW","Month":10,"Year":2011,"peakHour":61},"geometry":{"type":"Point","coordinates":[-123.33139121881504,48.468590428237036]}},{"type":"Feature","properties":{"id":9228,"countID":39,"onStreet":"Wale Rd","location":"W","xStreet":"Island Hwy","countDirection":"EW","Month":10,"Year":2011,"peakHour":31},"geometry":{"type":"Point","coordinates":[-123.46833045880253,48.445505252474725]}},{"type":"Feature","properties":{"id":9313,"countID":21,"onStreet":"Galloping Goose Regional Trail","location":"N","xStreet":"Sooke Rd","countDirection":"EW","Month":10,"Year":2011,"peakHour":3},"geometry":{"type":"Point","coordinates":[-123.65353014212657,48.39447992556414]}},{"type":"Feature","properties":{"id":9314,"countID":29,"onStreet":"Johnson St","location":"E","xStreet":"Blanshard St","countDirection":"EW","Month":10,"Year":2011,"peakHour":67},"geometry":{"type":"Point","coordinates":[-123.36090655020497,48.42675635586537]}},{"type":"Feature","properties":{"id":9316,"countID":38,"onStreet":"Goldstream Ave","location":"W","xStreet":"Veterans Memorial Pky","countDirection":"EW","Month":10,"Year":2011,"peakHour":19},"geometry":{"type":"Point","coordinates":[-123.4965031247219,48.44781268881178]}},{"type":"Feature","properties":{"id":9420,"countID":18,"onStreet":"Oak Bay Ave","location":"E","xStreet":"Foul Bay Rd","countDirection":"EW","Month":10,"Year":2011,"peakHour":47},"geometry":{"type":"Point","coordinates":[-123.32229414501802,48.42645426891452]}},{"type":"Feature","properties":{"id":9471,"countID":41,"onStreet":"Craigflower Rd","location":"E","xStreet":"Admirals Rd","countDirection":"EW","Month":10,"Year":2011,"peakHour":29},"geometry":{"type":"Point","coordinates":[-123.42400460998752,48.45063821135261]}},{"type":"Feature","properties":{"id":9548,"countID":17,"onStreet":"McKenzie Ave","location":"E","xStreet":"Gordon Head Rd","countDirection":"EW","Month":10,"Year":2011,"peakHour":60},"geometry":{"type":"Point","coordinates":[-123.31867673819492,48.468519940721634]}},{"type":"Feature","properties":{"id":9549,"countID":32,"onStreet":"Galloping Goose Regional Trail","location":"N","xStreet":"Crease Rd","countDirection":"EW","Month":10,"Year":2011,"peakHour":176},"geometry":{"type":"Point","coordinates":[-123.37837917500114,48.456287616850915]}},{"type":"Feature","properties":{"id":9749,"countID":17,"onStreet":"McKenzie Ave","location":"E","xStreet":"Gordon Head Rd","countDirection":"EW","Month":10,"Year":2012,"peakHour":94},"geometry":{"type":"Point","coordinates":[-123.31867673819492,48.468519940721634]}},{"type":"Feature","properties":{"id":9750,"countID":42,"onStreet":"Sooke Rd","location":"N","xStreet":"Otter Point Rd","countDirection":"EW","Month":10,"Year":2012,"peakHour":13},"geometry":{"type":"Point","coordinates":[-123.72340885352187,48.37771955947984]}},{"type":"Feature","properties":{"id":9901,"countID":29,"onStreet":"Johnson St","location":"E","xStreet":"Blanshard St","countDirection":"EW","Month":10,"Year":2012,"peakHour":101},"geometry":{"type":"Point","coordinates":[-123.36090655020497,48.42675635586537]}},{"type":"Feature","properties":{"id":9902,"countID":35,"onStreet":"McKenzie Ave","location":"E","xStreet":"Shelbourne St","countDirection":"EW","Month":10,"Year":2012,"peakHour":66},"geometry":{"type":"Point","coordinates":[-123.33139121881504,48.468590428237036]}},{"type":"Feature","properties":{"id":9903,"countID":41,"onStreet":"Craigflower Rd","location":"E","xStreet":"Admirals Rd","countDirection":"EW","Month":10,"Year":2012,"peakHour":28},"geometry":{"type":"Point","coordinates":[-123.42400460998752,48.45063821135261]}},{"type":"Feature","properties":{"id":10164,"countID":18,"onStreet":"Oak Bay Ave","location":"E","xStreet":"Foul Bay Rd","countDirection":"EW","Month":10,"Year":2012,"peakHour":57},"geometry":{"type":"Point","coordinates":[-123.32229414501802,48.42645426891452]}},{"type":"Feature","properties":{"id":10165,"countID":2,"onStreet":"Johnson St Bridge","location":"W","xStreet":"Wharf St","countDirection":"EW","Month":10,"Year":2012,"peakHour":385},"geometry":{"type":"Point","coordinates":[-123.37206702285776,48.428034713854494]}},{"type":"Feature","properties":{"id":10167,"countID":39,"onStreet":"Wale Rd","location":"W","xStreet":"Island Hwy","countDirection":"EW","Month":10,"Year":2012,"peakHour":36},"geometry":{"type":"Point","coordinates":[-123.46833045880253,48.445505252474725]}},{"type":"Feature","properties":{"id":10520,"countID":21,"onStreet":"Galloping Goose Regional Trail","location":"N","xStreet":"Sooke Rd","countDirection":"EW","Month":10,"Year":2012,"peakHour":6},"geometry":{"type":"Point","coordinates":[-123.65353014212657,48.39447992556414]}},{"type":"Feature","properties":{"id":10521,"countID":32,"onStreet":"Galloping Goose Regional Trail","location":"N","xStreet":"Crease Rd","countDirection":"EW","Month":10,"Year":2012,"peakHour":216},"geometry":{"type":"Point","coordinates":[-123.37837917500114,48.456287616850915]}},{"type":"Feature","properties":{"id":10678,"countID":38,"onStreet":"Goldstream Ave","location":"W","xStreet":"Veterans Memorial Pky","countDirection":"EW","Month":10,"Year":2012,"peakHour":35},"geometry":{"type":"Point","coordinates":[-123.4965031247219,48.44781268881178]}},{"type":"Feature","properties":{"id":11360,"countID":17,"onStreet":"McKenzie Ave","location":"E","xStreet":"Gordon Head Rd","countDirection":"EW","Month":5,"Year":2013,"peakHour":75},"geometry":{"type":"Point","coordinates":[-123.31867673819492,48.468519940721634]}},{"type":"Feature","properties":{"id":11361,"countID":32,"onStreet":"Galloping Goose Regional Trail","location":"N","xStreet":"Crease Rd","countDirection":"EW","Month":5,"Year":2013,"peakHour":282},"geometry":{"type":"Point","coordinates":[-123.37837917500114,48.456287616850915]}},{"type":"Feature","properties":{"id":11472,"countID":29,"onStreet":"Johnson St","location":"E","xStreet":"Blanshard St","countDirection":"EW","Month":5,"Year":2013,"peakHour":86},"geometry":{"type":"Point","coordinates":[-123.36090655020497,48.42675635586537]}},{"type":"Feature","properties":{"id":11474,"countID":42,"onStreet":"Sooke Rd","location":"N","xStreet":"Otter Point Rd","countDirection":"EW","Month":5,"Year":2013,"peakHour":12},"geometry":{"type":"Point","coordinates":[-123.72340885352187,48.37771955947984]}},{"type":"Feature","properties":{"id":11557,"countID":2,"onStreet":"Johnson St Bridge","location":"W","xStreet":"Wharf St","countDirection":"EW","Month":5,"Year":2013,"peakHour":444},"geometry":{"type":"Point","coordinates":[-123.37206702285776,48.428034713854494]}},{"type":"Feature","properties":{"id":11558,"countID":35,"onStreet":"McKenzie Ave","location":"E","xStreet":"Shelbourne St","countDirection":"EW","Month":5,"Year":2013,"peakHour":59},"geometry":{"type":"Point","coordinates":[-123.33139121881504,48.468590428237036]}},{"type":"Feature","properties":{"id":11559,"countID":38,"onStreet":"Goldstream Ave","location":"W","xStreet":"Veterans Memorial Pky","countDirection":"EW","Month":5,"Year":2013,"peakHour":43},"geometry":{"type":"Point","coordinates":[-123.4965031247219,48.44781268881178]}},{"type":"Feature","properties":{"id":11560,"countID":41,"onStreet":"Craigflower Rd","location":"E","xStreet":"Admirals Rd","countDirection":"EW","Month":5,"Year":2013,"peakHour":24},"geometry":{"type":"Point","coordinates":[-123.42400460998752,48.45063821135261]}},{"type":"Feature","properties":{"id":12576,"countID":57,"onStreet":"Cadboro Bay Rd","location":"E","xStreet":"Foul Bay Rd","countDirection":"EW","Month":10,"Year":2013,"peakHour":25},"geometry":{"type":"Point","coordinates":[-123.32221748058735,48.43220937512565]}},{"type":"Feature","properties":{"id":12583,"countID":19,"onStreet":"Dallas Rd","location":"E","xStreet":"Cook St","countDirection":"EW","Month":10,"Year":2013,"peakHour":50},"geometry":{"type":"Point","coordinates":[-123.35748248190215,48.407898983825916]}},{"type":"Feature","properties":{"id":12584,"countID":20,"onStreet":"Fort St","location":"N","xStreet":"Oak Bay Ave","countDirection":"EW","Month":10,"Year":2013,"peakHour":67},"geometry":{"type":"Point","coordinates":[-123.33604135970207,48.42695745577476]}},{"type":"Feature","properties":{"id":12585,"countID":35,"onStreet":"McKenzie Ave","location":"E","xStreet":"Shelbourne St","countDirection":"EW","Month":10,"Year":2013,"peakHour":40},"geometry":{"type":"Point","coordinates":[-123.33139121881504,48.468590428237036]}},{"type":"Feature","properties":{"id":12586,"countID":40,"onStreet":"Esquimalt Rd","location":"W","xStreet":"Lampson St","countDirection":"EW","Month":10,"Year":2013,"peakHour":52},"geometry":{"type":"Point","coordinates":[-123.40728077044847,48.429642213151084]}},{"type":"Feature","properties":{"id":12587,"countID":41,"onStreet":"Craigflower Rd","location":"E","xStreet":"Admirals Rd","countDirection":"EW","Month":10,"Year":2013,"peakHour":18},"geometry":{"type":"Point","coordinates":[-123.42400460998752,48.45063821135261]}},{"type":"Feature","properties":{"id":12588,"countID":42,"onStreet":"Sooke Rd","location":"N","xStreet":"Otter Point Rd","countDirection":"EW","Month":10,"Year":2013,"peakHour":5},"geometry":{"type":"Point","coordinates":[-123.72340885352187,48.37771955947984]}},{"type":"Feature","properties":{"id":12948,"countID":2,"onStreet":"Johnson St Bridge","location":"W","xStreet":"Wharf St","countDirection":"EW","Month":10,"Year":2013,"peakHour":260},"geometry":{"type":"Point","coordinates":[-123.37206702285776,48.428034713854494]}},{"type":"Feature","properties":{"id":12949,"countID":29,"onStreet":"Johnson St","location":"E","xStreet":"Blanshard St","countDirection":"EW","Month":10,"Year":2013,"peakHour":57},"geometry":{"type":"Point","coordinates":[-123.36090655020497,48.42675635586537]}},{"type":"Feature","properties":{"id":12950,"countID":38,"onStreet":"Goldstream Ave","location":"W","xStreet":"Veterans Memorial Pky","countDirection":"EW","Month":10,"Year":2013,"peakHour":12},"geometry":{"type":"Point","coordinates":[-123.4965031247219,48.44781268881178]}},{"type":"Feature","properties":{"id":13435,"countID":17,"onStreet":"McKenzie Ave","location":"E","xStreet":"Gordon Head Rd","countDirection":"EW","Month":10,"Year":2013,"peakHour":92},"geometry":{"type":"Point","coordinates":[-123.31867673819492,48.468519940721634]}},{"type":"Feature","properties":{"id":13436,"countID":21,"onStreet":"Galloping Goose Regional Trail","location":"N","xStreet":"Sooke Rd","countDirection":"EW","Month":10,"Year":2013,"peakHour":1},"geometry":{"type":"Point","coordinates":[-123.65353014212657,48.39447992556414]}},{"type":"Feature","properties":{"id":13437,"countID":32,"onStreet":"Galloping Goose Regional Trail","location":"N","xStreet":"Crease Rd","countDirection":"EW","Month":10,"Year":2013,"peakHour":204},"geometry":{"type":"Point","coordinates":[-123.37837917500114,48.456287616850915]}},{"type":"Feature","properties":{"id":13438,"countID":39,"onStreet":"Wale Rd","location":"W","xStreet":"Island Hwy","countDirection":"EW","Month":10,"Year":2013,"peakHour":23},"geometry":{"type":"Point","coordinates":[-123.46833045880253,48.445505252474725]}},{"type":"Feature","properties":{"id":14473,"countID":17,"onStreet":"McKenzie Ave","location":"E","xStreet":"Gordon Head Rd","countDirection":"EW","Month":5,"Year":2014,"peakHour":51},"geometry":{"type":"Point","coordinates":[-123.31867673819492,48.468519940721634]}},{"type":"Feature","properties":{"id":14474,"countID":19,"onStreet":"Dallas Rd","location":"E","xStreet":"Cook St","countDirection":"EW","Month":5,"Year":2014,"peakHour":77},"geometry":{"type":"Point","coordinates":[-123.35748248190215,48.407898983825916]}},{"type":"Feature","properties":{"id":14475,"countID":20,"onStreet":"Fort St","location":"N","xStreet":"Oak Bay Ave","countDirection":"EW","Month":5,"Year":2014,"peakHour":80},"geometry":{"type":"Point","coordinates":[-123.33604135970207,48.42695745577476]}},{"type":"Feature","properties":{"id":14476,"countID":32,"onStreet":"Galloping Goose Regional Trail","location":"N","xStreet":"Crease Rd","countDirection":"EW","Month":5,"Year":2014,"peakHour":253},"geometry":{"type":"Point","coordinates":[-123.37837917500114,48.456287616850915]}},{"type":"Feature","properties":{"id":14634,"countID":2,"onStreet":"Johnson St Bridge","location":"W","xStreet":"Wharf St","countDirection":"EW","Month":5,"Year":2014,"peakHour":275},"geometry":{"type":"Point","coordinates":[-123.37206702285776,48.428034713854494]}},{"type":"Feature","properties":{"id":14977,"countID":15,"onStreet":"Humboldt St","location":"E","xStreet":"Blanshard St","countDirection":"EW","Month":10,"Year":2014,"peakHour":47},"geometry":{"type":"Point","coordinates":[-123.3628058423323,48.41985153295985]}},{"type":"Feature","properties":{"id":14978,"countID":18,"onStreet":"Oak Bay Ave","location":"E","xStreet":"Foul Bay Rd","countDirection":"EW","Month":10,"Year":2014,"peakHour":55},"geometry":{"type":"Point","coordinates":[-123.32229414501802,48.42645426891452]}},{"type":"Feature","properties":{"id":14979,"countID":2,"onStreet":"Johnson St Bridge","location":"W","xStreet":"Wharf St","countDirection":"EW","Month":10,"Year":2014,"peakHour":464},"geometry":{"type":"Point","coordinates":[-123.37206702285776,48.428034713854494]}},{"type":"Feature","properties":{"id":14980,"countID":29,"onStreet":"Johnson St","location":"E","xStreet":"Blanshard St","countDirection":"EW","Month":10,"Year":2014,"peakHour":98},"geometry":{"type":"Point","coordinates":[-123.36090655020497,48.42675635586537]}},{"type":"Feature","properties":{"id":15464,"countID":21,"onStreet":"Galloping Goose Regional Trail","location":"N","xStreet":"Sooke Rd","countDirection":"EW","Month":10,"Year":2014,"peakHour":1},"geometry":{"type":"Point","coordinates":[-123.65353014212657,48.39447992556414]}},{"type":"Feature","properties":{"id":15465,"countID":40,"onStreet":"Esquimalt Rd","location":"W","xStreet":"Lampson St","countDirection":"EW","Month":10,"Year":2014,"peakHour":81},"geometry":{"type":"Point","coordinates":[-123.40728077044847,48.429642213151084]}},{"type":"Feature","properties":{"id":15466,"countID":43,"onStreet":"Galloping Goose Regional Trail","location":"S","xStreet":"E&N Rail Trail","countDirection":"EW","Month":10,"Year":2014,"peakHour":128},"geometry":{"type":"Point","coordinates":[-123.4548127916809,48.4609323392453]}},{"type":"Feature","properties":{"id":15467,"countID":51,"onStreet":"Lansdowne Rd","location":"W","xStreet":"Richmond Rd","countDirection":"EW","Month":10,"Year":2014,"peakHour":38},"geometry":{"type":"Point","coordinates":[-123.32695254331936,48.44615046724345]}},{"type":"Feature","properties":{"id":15634,"countID":32,"onStreet":"Galloping Goose Regional Trail","location":"N","xStreet":"Crease Rd","countDirection":"EW","Month":10,"Year":2014,"peakHour":215},"geometry":{"type":"Point","coordinates":[-123.37837917500114,48.456287616850915]}},{"type":"Feature","properties":{"id":15635,"countID":37,"onStreet":"Gorge Rd","location":"W","xStreet":"Jutland Rd","countDirection":"EW","Month":10,"Year":2014,"peakHour":38},"geometry":{"type":"Point","coordinates":[-123.37712788644735,48.442096420009065]}},{"type":"Feature","properties":{"id":15638,"countID":46,"onStreet":"Sooke Rd","location":"W","xStreet":"Sooke River Rd","countDirection":"EW","Month":10,"Year":2014,"peakHour":26},"geometry":{"type":"Point","coordinates":[-123.70093300482644,48.38740414058521]}},{"type":"Feature","properties":{"id":15928,"countID":17,"onStreet":"McKenzie Ave","location":"E","xStreet":"Gordon Head Rd","countDirection":"EW","Month":10,"Year":2014,"peakHour":127},"geometry":{"type":"Point","coordinates":[-123.31867673819492,48.468519940721634]}},{"type":"Feature","properties":{"id":15929,"countID":19,"onStreet":"Dallas Rd","location":"E","xStreet":"Cook St","countDirection":"EW","Month":10,"Year":2014,"peakHour":25},"geometry":{"type":"Point","coordinates":[-123.35748248190215,48.407898983825916]}},{"type":"Feature","properties":{"id":15930,"countID":20,"onStreet":"Fort St","location":"N","xStreet":"Oak Bay Ave","countDirection":"EW","Month":10,"Year":2014,"peakHour":80},"geometry":{"type":"Point","coordinates":[-123.33604135970207,48.42695745577476]}},{"type":"Feature","properties":{"id":15932,"countID":35,"onStreet":"McKenzie Ave","location":"E","xStreet":"Shelbourne St","countDirection":"EW","Month":10,"Year":2014,"peakHour":90},"geometry":{"type":"Point","coordinates":[-123.33139121881504,48.468590428237036]}},{"type":"Feature","properties":{"id":15934,"countID":41,"onStreet":"Craigflower Rd","location":"E","xStreet":"Admirals Rd","countDirection":"EW","Month":10,"Year":2014,"peakHour":26},"geometry":{"type":"Point","coordinates":[-123.42400460998752,48.45063821135261]}},{"type":"Feature","properties":{"id":16806,"countID":20,"onStreet":"Fort St","location":"N","xStreet":"Oak Bay Ave","countDirection":"EW","Month":5,"Year":2015,"peakHour":81},"geometry":{"type":"Point","coordinates":[-123.33604135970207,48.42695745577476]}},{"type":"Feature","properties":{"id":16807,"countID":46,"onStreet":"Sooke Rd","location":"W","xStreet":"Sooke River Rd","countDirection":"EW","Month":5,"Year":2015,"peakHour":6},"geometry":{"type":"Point","coordinates":[-123.70093300482644,48.38740414058521]}},{"type":"Feature","properties":{"id":17050,"countID":29,"onStreet":"Johnson St","location":"E","xStreet":"Blanshard St","countDirection":"EW","Month":5,"Year":2015,"peakHour":82},"geometry":{"type":"Point","coordinates":[-123.36090655020497,48.42675635586537]}},{"type":"Feature","properties":{"id":17051,"countID":43,"onStreet":"Galloping Goose Regional Trail","location":"S","xStreet":"E&N Rail Trail","countDirection":"EW","Month":5,"Year":2015,"peakHour":118},"geometry":{"type":"Point","coordinates":[-123.4548127916809,48.4609323392453]}},{"type":"Feature","properties":{"id":17340,"countID":17,"onStreet":"McKenzie Ave","location":"E","xStreet":"Gordon Head Rd","countDirection":"EW","Month":5,"Year":2015,"peakHour":66},"geometry":{"type":"Point","coordinates":[-123.31867673819492,48.468519940721634]}},{"type":"Feature","properties":{"id":17341,"countID":35,"onStreet":"McKenzie Ave","location":"E","xStreet":"Shelbourne St","countDirection":"EW","Month":5,"Year":2015,"peakHour":67},"geometry":{"type":"Point","coordinates":[-123.33139121881504,48.468590428237036]}},{"type":"Feature","properties":{"id":17342,"countID":41,"onStreet":"Craigflower Rd","location":"E","xStreet":"Admirals Rd","countDirection":"EW","Month":5,"Year":2015,"peakHour":23},"geometry":{"type":"Point","coordinates":[-123.42400460998752,48.45063821135261]}},{"type":"Feature","properties":{"id":17343,"countID":50,"onStreet":"Fort St","location":"W","xStreet":"Vancouver St","countDirection":"EW","Month":5,"Year":2015,"peakHour":90},"geometry":{"type":"Point","coordinates":[-123.35738293741542,48.42377612978392]}},{"type":"Feature","properties":{"id":17616,"countID":19,"onStreet":"Dallas Rd","location":"E","xStreet":"Cook St","countDirection":"EW","Month":5,"Year":2015,"peakHour":86},"geometry":{"type":"Point","coordinates":[-123.35748248190215,48.407898983825916]}},{"type":"Feature","properties":{"id":17789,"countID":12,"onStreet":"Haultain St","location":"W","xStreet":"Forbes St","countDirection":"EW","Month":5,"Year":2015,"peakHour":99},"geometry":{"type":"Point","coordinates":[-123.33920825298077,48.43614184489773]}},{"type":"Feature","properties":{"id":17793,"countID":57,"onStreet":"Cadboro Bay Rd","location":"E","xStreet":"Foul Bay Rd","countDirection":"EW","Month":5,"Year":2015,"peakHour":50},"geometry":{"type":"Point","coordinates":[-123.32221748058735,48.43220937512565]}},{"type":"Feature","properties":{"id":18225,"countID":20,"onStreet":"Fort St","location":"N","xStreet":"Oak Bay Ave","countDirection":"EW","Month":10,"Year":2015,"peakHour":111},"geometry":{"type":"Point","coordinates":[-123.33604135970207,48.42695745577476]}},{"type":"Feature","properties":{"id":18323,"countID":17,"onStreet":"McKenzie Ave","location":"E","xStreet":"Gordon Head Rd","countDirection":"EW","Month":10,"Year":2015,"peakHour":98},"geometry":{"type":"Point","coordinates":[-123.31867673819492,48.468519940721634]}},{"type":"Feature","properties":{"id":18324,"countID":39,"onStreet":"Wale Rd","location":"W","xStreet":"Island Hwy","countDirection":"EW","Month":10,"Year":2015,"peakHour":36},"geometry":{"type":"Point","coordinates":[-123.46833045880253,48.445505252474725]}},{"type":"Feature","properties":{"id":18325,"countID":53,"onStreet":"Fairfield Rd","location":"E","xStreet":"Cook St","countDirection":"EW","Month":10,"Year":2015,"peakHour":46},"geometry":{"type":"Point","coordinates":[-123.35495931815984,48.417948789391936]}},{"type":"Feature","properties":{"id":18422,"countID":19,"onStreet":"Dallas Rd","location":"E","xStreet":"Cook St","countDirection":"EW","Month":10,"Year":2015,"peakHour":14},"geometry":{"type":"Point","coordinates":[-123.35748248190215,48.407898983825916]}},{"type":"Feature","properties":{"id":18511,"countID":12,"onStreet":"Haultain St","location":"W","xStreet":"Forbes St","countDirection":"EW","Month":10,"Year":2015,"peakHour":69},"geometry":{"type":"Point","coordinates":[-123.33920825298077,48.43614184489773]}},{"type":"Feature","properties":{"id":18512,"countID":43,"onStreet":"Galloping Goose Regional Trail","location":"S","xStreet":"E&N Rail Trail","countDirection":"EW","Month":10,"Year":2015,"peakHour":108},"geometry":{"type":"Point","coordinates":[-123.4548127916809,48.4609323392453]}},{"type":"Feature","properties":{"id":18654,"countID":35,"onStreet":"McKenzie Ave","location":"E","xStreet":"Shelbourne St","countDirection":"EW","Month":10,"Year":2015,"peakHour":69},"geometry":{"type":"Point","coordinates":[-123.33139121881504,48.468590428237036]}},{"type":"Feature","properties":{"id":18726,"countID":41,"onStreet":"Craigflower Rd","location":"E","xStreet":"Admirals Rd","countDirection":"EW","Month":10,"Year":2015,"peakHour":18},"geometry":{"type":"Point","coordinates":[-123.42400460998752,48.45063821135261]}},{"type":"Feature","properties":{"id":18865,"countID":12,"onStreet":"Haultain St","location":"W","xStreet":"Forbes St","countDirection":"EW","Month":5,"Year":2016,"peakHour":125},"geometry":{"type":"Point","coordinates":[-123.33920825298077,48.43614184489773]}},{"type":"Feature","properties":{"id":18867,"countID":57,"onStreet":"Cadboro Bay Rd","location":"E","xStreet":"Foul Bay Rd","countDirection":"EW","Month":5,"Year":2016,"peakHour":58},"geometry":{"type":"Point","coordinates":[-123.32221748058735,48.43220937512565]}},{"type":"Feature","properties":{"id":18872,"countID":40,"onStreet":"Esquimalt Rd","location":"W","xStreet":"Lampson St","countDirection":"EW","Month":5,"Year":2016,"peakHour":65},"geometry":{"type":"Point","coordinates":[-123.40728077044847,48.429642213151084]}},{"type":"Feature","properties":{"id":18873,"countID":43,"onStreet":"Galloping Goose Regional Trail","location":"S","xStreet":"E&N Rail Trail","countDirection":"EW","Month":5,"Year":2016,"peakHour":176},"geometry":{"type":"Point","coordinates":[-123.4548127916809,48.4609323392453]}},{"type":"Feature","properties":{"id":18975,"countID":2,"onStreet":"Johnson St Bridge","location":"W","xStreet":"Wharf St","countDirection":"EW","Month":5,"Year":2016,"peakHour":480},"geometry":{"type":"Point","coordinates":[-123.37206702285776,48.428034713854494]}},{"type":"Feature","properties":{"id":19188,"countID":15,"onStreet":"Humboldt St","location":"E","xStreet":"Blanshard St","countDirection":"EW","Month":5,"Year":2016,"peakHour":44},"geometry":{"type":"Point","coordinates":[-123.3628058423323,48.41985153295985]}},{"type":"Feature","properties":{"id":19189,"countID":19,"onStreet":"Dallas Rd","location":"E","xStreet":"Cook St","countDirection":"EW","Month":5,"Year":2016,"peakHour":46},"geometry":{"type":"Point","coordinates":[-123.35748248190215,48.407898983825916]}},{"type":"Feature","properties":{"id":19190,"countID":27,"onStreet":"Richardson St","location":"E","xStreet":"Cook St","countDirection":"EW","Month":5,"Year":2016,"peakHour":64},"geometry":{"type":"Point","coordinates":[-123.3544390519858,48.41958031408161]}},{"type":"Feature","properties":{"id":19193,"countID":53,"onStreet":"Fairfield Rd","location":"E","xStreet":"Cook St","countDirection":"EW","Month":5,"Year":2016,"peakHour":44},"geometry":{"type":"Point","coordinates":[-123.35495931815984,48.417948789391936]}},{"type":"Feature","properties":{"id":19312,"countID":50,"onStreet":"Fort St","location":"W","xStreet":"Vancouver St","countDirection":"EW","Month":5,"Year":2016,"peakHour":77},"geometry":{"type":"Point","coordinates":[-123.35738293741542,48.42377612978392]}},{"type":"Feature","properties":{"id":19500,"countID":41,"onStreet":"Craigflower Rd","location":"E","xStreet":"Admirals Rd","countDirection":"EW","Month":5,"Year":2016,"peakHour":28},"geometry":{"type":"Point","coordinates":[-123.42400460998752,48.45063821135261]}},{"type":"Feature","properties":{"id":19501,"countID":42,"onStreet":"Sooke Rd","location":"N","xStreet":"Otter Point Rd","countDirection":"EW","Month":5,"Year":2016,"peakHour":8},"geometry":{"type":"Point","coordinates":[-123.72340885352187,48.37771955947984]}},{"type":"Feature","properties":{"id":19822,"countID":17,"onStreet":"McKenzie Ave","location":"E","xStreet":"Gordon Head Rd","countDirection":"EW","Month":10,"Year":2016,"peakHour":109},"geometry":{"type":"Point","coordinates":[-123.31867673819492,48.468519940721634]}},{"type":"Feature","properties":{"id":19823,"countID":32,"onStreet":"Galloping Goose Regional Trail","location":"N","xStreet":"Crease Rd","countDirection":"EW","Month":10,"Year":2016,"peakHour":204},"geometry":{"type":"Point","coordinates":[-123.37837917500114,48.456287616850915]}},{"type":"Feature","properties":{"id":19824,"countID":43,"onStreet":"Galloping Goose Regional Trail","location":"S","xStreet":"E&N Rail Trail","countDirection":"EW","Month":10,"Year":2016,"peakHour":148},"geometry":{"type":"Point","coordinates":[-123.4548127916809,48.4609323392453]}},{"type":"Feature","properties":{"id":20096,"countID":57,"onStreet":"Cadboro Bay Rd","location":"E","xStreet":"Foul Bay Rd","countDirection":"EW","Month":10,"Year":2016,"peakHour":48},"geometry":{"type":"Point","coordinates":[-123.32221748058735,48.43220937512565]}},{"type":"Feature","properties":{"id":20248,"countID":27,"onStreet":"Richardson St","location":"E","xStreet":"Cook St","countDirection":"EW","Month":10,"Year":2016,"peakHour":60},"geometry":{"type":"Point","coordinates":[-123.3544390519858,48.41958031408161]}},{"type":"Feature","properties":{"id":20450,"countID":35,"onStreet":"McKenzie Ave","location":"E","xStreet":"Shelbourne St","countDirection":"EW","Month":10,"Year":2016,"peakHour":50},"geometry":{"type":"Point","coordinates":[-123.33139121881504,48.468590428237036]}},{"type":"Feature","properties":{"id":20451,"countID":46,"onStreet":"Sooke Rd","location":"W","xStreet":"Sooke River Rd","countDirection":"EW","Month":10,"Year":2016,"peakHour":5},"geometry":{"type":"Point","coordinates":[-123.70093300482644,48.38740414058521]}},{"type":"Feature","properties":{"id":20452,"countID":51,"onStreet":"Lansdowne Rd","location":"W","xStreet":"Richmond Rd","countDirection":"EW","Month":10,"Year":2016,"peakHour":22},"geometry":{"type":"Point","coordinates":[-123.32695254331936,48.44615046724345]}},{"type":"Feature","properties":{"id":20569,"countID":2,"onStreet":"Johnson St Bridge","location":"W","xStreet":"Wharf St","countDirection":"EW","Month":10,"Year":2016,"peakHour":352},"geometry":{"type":"Point","coordinates":[-123.37206702285776,48.428034713854494]}},{"type":"Feature","properties":{"id":20738,"countID":16,"onStreet":"Henderson Rd","location":"S","xStreet":"Cedar Hill Cross Rd","countDirection":"NS","Month":10,"Year":2011,"peakHour":172},"geometry":{"type":"Point","coordinates":[-123.3156686484403,48.458438290730996]}},{"type":"Feature","properties":{"id":20739,"countID":23,"onStreet":"Fifth St","location":"S","xStreet":"Ocean Ave","countDirection":"NS","Month":10,"Year":2011,"peakHour":24},"geometry":{"type":"Point","coordinates":[-123.40031178925264,48.643793429812156]}},{"type":"Feature","properties":{"id":20740,"countID":33,"onStreet":"Admirals Rd","location":"S","xStreet":"Colville Rd","countDirection":"NS","Month":10,"Year":2011,"peakHour":20},"geometry":{"type":"Point","coordinates":[-123.41761565791393,48.43683205989453]}},{"type":"Feature","properties":{"id":20741,"countID":34,"onStreet":"Shelbourne St","location":"S","xStreet":"McKenzie Ave","countDirection":"NS","Month":10,"Year":2011,"peakHour":25},"geometry":{"type":"Point","coordinates":[-123.33274203450355,48.46827213311002]}},{"type":"Feature","properties":{"id":20742,"countID":45,"onStreet":"University Dr","location":"S","xStreet":"Ring Rd","countDirection":"NS","Month":10,"Year":2011,"peakHour":165},"geometry":{"type":"Point","coordinates":[-123.31445947175575,48.4602011156107]}},{"type":"Feature","properties":{"id":20743,"countID":5,"onStreet":"Lochside Regional Trail","location":"S","xStreet":"McKenzie Ave","countDirection":"NS","Month":10,"Year":2011,"peakHour":140},"geometry":{"type":"Point","coordinates":[-123.36141697354498,48.470277414630445]}},{"type":"Feature","properties":{"id":20749,"countID":9,"onStreet":"Government St","location":"S","xStreet":"Bay St","countDirection":"NS","Month":10,"Year":2011,"peakHour":55},"geometry":{"type":"Point","coordinates":[-123.36730572991469,48.43553523099169]}},{"type":"Feature","properties":{"id":20829,"countID":10,"onStreet":"Douglas St","location":"S","xStreet":"Bay St","countDirection":"NS","Month":10,"Year":2011,"peakHour":42},"geometry":{"type":"Point","coordinates":[-123.36530705951395,48.43545934678906]}},{"type":"Feature","properties":{"id":20840,"countID":22,"onStreet":"Lochside Dr","location":"S","xStreet":"Royal Oak Dr","countDirection":"NS","Month":10,"Year":2011,"peakHour":68},"geometry":{"type":"Point","coordinates":[-123.36178739518392,48.50111771365756]}},{"type":"Feature","properties":{"id":20841,"countID":30,"onStreet":"Government St","location":"N","xStreet":"Belleville St","countDirection":"NS","Month":10,"Year":2011,"peakHour":127},"geometry":{"type":"Point","coordinates":[-123.36882159305416,48.42103305994022]}},{"type":"Feature","properties":{"id":20843,"countID":44,"onStreet":"West Saanich Rd","location":"N","xStreet":"Wallace Dr","countDirection":"NS","Month":10,"Year":2011,"peakHour":13},"geometry":{"type":"Point","coordinates":[-123.44578410548556,48.57558838461289]}},{"type":"Feature","properties":{"id":20987,"countID":11,"onStreet":"Blanshard St","location":"S","xStreet":"Bay St","countDirection":"NS","Month":10,"Year":2011,"peakHour":62},"geometry":{"type":"Point","coordinates":[-123.362841575443,48.43499867900939]}},{"type":"Feature","properties":{"id":21082,"countID":31,"onStreet":"Lochside Regional Trail","location":"N","xStreet":"Switch Bridge","countDirection":"NS","Month":10,"Year":2011,"peakHour":205},"geometry":{"type":"Point","coordinates":[-123.37725601885208,48.457028744701375]}},{"type":"Feature","properties":{"id":21083,"countID":4,"onStreet":"Galloping Goose Regional Trail","location":"S","xStreet":"Information Booth at Switch Bridge","countDirection":"NS","Month":10,"Year":2011,"peakHour":281},"geometry":{"type":"Point","coordinates":[-123.37754441076837,48.45557214844046]}},{"type":"Feature","properties":{"id":21274,"countID":23,"onStreet":"Fifth St","location":"S","xStreet":"Ocean Ave","countDirection":"NS","Month":10,"Year":2012,"peakHour":25},"geometry":{"type":"Point","coordinates":[-123.40031178925264,48.643793429812156]}},{"type":"Feature","properties":{"id":21275,"countID":3,"onStreet":"E&N Rail Trail","location":"N","xStreet":"Esquimalt Rd","countDirection":"NS","Month":10,"Year":2012,"peakHour":14},"geometry":{"type":"Point","coordinates":[-123.38869810027232,48.430816568151975]}},{"type":"Feature","properties":{"id":21276,"countID":30,"onStreet":"Government St","location":"N","xStreet":"Belleville St","countDirection":"NS","Month":10,"Year":2012,"peakHour":155},"geometry":{"type":"Point","coordinates":[-123.36882159305416,48.42103305994022]}},{"type":"Feature","properties":{"id":21281,"countID":6,"onStreet":"Interuban Rd","location":"N","xStreet":"Burnside Rd W","countDirection":"NS","Month":10,"Year":2012,"peakHour":62},"geometry":{"type":"Point","coordinates":[-123.39449549745305,48.45920330553605]}},{"type":"Feature","properties":{"id":21433,"countID":34,"onStreet":"Shelbourne St","location":"S","xStreet":"McKenzie Ave","countDirection":"NS","Month":10,"Year":2012,"peakHour":33},"geometry":{"type":"Point","coordinates":[-123.33274203450355,48.46827213311002]}},{"type":"Feature","properties":{"id":21434,"countID":44,"onStreet":"West Saanich Rd","location":"N","xStreet":"Wallace Dr","countDirection":"NS","Month":10,"Year":2012,"peakHour":19},"geometry":{"type":"Point","coordinates":[-123.44578410548556,48.57558838461289]}},{"type":"Feature","properties":{"id":21663,"countID":10,"onStreet":"Douglas St","location":"S","xStreet":"Bay St","countDirection":"NS","Month":10,"Year":2012,"peakHour":60},"geometry":{"type":"Point","coordinates":[-123.36530705951395,48.43545934678906]}},{"type":"Feature","properties":{"id":21674,"countID":11,"onStreet":"Blanshard St","location":"S","xStreet":"Bay St","countDirection":"NS","Month":10,"Year":2012,"peakHour":69},"geometry":{"type":"Point","coordinates":[-123.362841575443,48.43499867900939]}},{"type":"Feature","properties":{"id":21688,"countID":16,"onStreet":"Henderson Rd","location":"S","xStreet":"Cedar Hill Cross Rd","countDirection":"NS","Month":10,"Year":2012,"peakHour":246},"geometry":{"type":"Point","coordinates":[-123.3156686484403,48.458438290730996]}},{"type":"Feature","properties":{"id":21689,"countID":22,"onStreet":"Lochside Dr","location":"S","xStreet":"Royal Oak Dr","countDirection":"NS","Month":10,"Year":2012,"peakHour":92},"geometry":{"type":"Point","coordinates":[-123.36178739518392,48.50111771365756]}},{"type":"Feature","properties":{"id":21692,"countID":45,"onStreet":"University Dr","location":"S","xStreet":"Ring Rd","countDirection":"NS","Month":10,"Year":2012,"peakHour":247},"geometry":{"type":"Point","coordinates":[-123.31445947175575,48.4602011156107]}},{"type":"Feature","properties":{"id":21840,"countID":49,"onStreet":"Lochside Regional Trail","location":"N","xStreet":"Cedar Hill Cross Rd","countDirection":"NS","Month":10,"Year":2012,"peakHour":119},"geometry":{"type":"Point","coordinates":[-123.36062234405433,48.471773503453946]}},{"type":"Feature","properties":{"id":21847,"countID":9,"onStreet":"Government St","location":"S","xStreet":"Bay St","countDirection":"NS","Month":10,"Year":2012,"peakHour":68},"geometry":{"type":"Point","coordinates":[-123.36730572991469,48.43553523099169]}},{"type":"Feature","properties":{"id":22027,"countID":25,"onStreet":"West Saanich Rd","location":"N","xStreet":"Interurban Rd","countDirection":"NS","Month":10,"Year":2012,"peakHour":32},"geometry":{"type":"Point","coordinates":[-123.41467755807633,48.51153313067925]}},{"type":"Feature","properties":{"id":22028,"countID":31,"onStreet":"Lochside Regional Trail","location":"N","xStreet":"Switch Bridge","countDirection":"NS","Month":10,"Year":2012,"peakHour":253},"geometry":{"type":"Point","coordinates":[-123.37725601885208,48.457028744701375]}},{"type":"Feature","properties":{"id":22029,"countID":33,"onStreet":"Admirals Rd","location":"S","xStreet":"Colville Rd","countDirection":"NS","Month":10,"Year":2012,"peakHour":44},"geometry":{"type":"Point","coordinates":[-123.41761565791393,48.43683205989453]}},{"type":"Feature","properties":{"id":22030,"countID":4,"onStreet":"Galloping Goose Regional Trail","location":"S","xStreet":"Information Booth at Switch Bridge","countDirection":"NS","Month":10,"Year":2012,"peakHour":362},"geometry":{"type":"Point","coordinates":[-123.37754441076837,48.45557214844046]}},{"type":"Feature","properties":{"id":22032,"countID":5,"onStreet":"Lochside Regional Trail","location":"S","xStreet":"McKenzie Ave","countDirection":"NS","Month":10,"Year":2012,"peakHour":172},"geometry":{"type":"Point","coordinates":[-123.36141697354498,48.470277414630445]}},{"type":"Feature","properties":{"id":22891,"countID":16,"onStreet":"Henderson Rd","location":"S","xStreet":"Cedar Hill Cross Rd","countDirection":"NS","Month":5,"Year":2013,"peakHour":180},"geometry":{"type":"Point","coordinates":[-123.3156686484403,48.458438290730996]}},{"type":"Feature","properties":{"id":22892,"countID":31,"onStreet":"Lochside Regional Trail","location":"N","xStreet":"Switch Bridge","countDirection":"NS","Month":5,"Year":2013,"peakHour":284},"geometry":{"type":"Point","coordinates":[-123.37725601885208,48.457028744701375]}},{"type":"Feature","properties":{"id":22893,"countID":4,"onStreet":"Galloping Goose Regional Trail","location":"S","xStreet":"Information Booth at Switch Bridge","countDirection":"NS","Month":5,"Year":2013,"peakHour":428},"geometry":{"type":"Point","coordinates":[-123.37754441076837,48.45557214844046]}},{"type":"Feature","properties":{"id":22894,"countID":45,"onStreet":"University Dr","location":"S","xStreet":"Ring Rd","countDirection":"NS","Month":5,"Year":2013,"peakHour":181},"geometry":{"type":"Point","coordinates":[-123.31445947175575,48.4602011156107]}},{"type":"Feature","properties":{"id":22900,"countID":9,"onStreet":"Government St","location":"S","xStreet":"Bay St","countDirection":"NS","Month":5,"Year":2013,"peakHour":63},"geometry":{"type":"Point","coordinates":[-123.36730572991469,48.43553523099169]}},{"type":"Feature","properties":{"id":23155,"countID":30,"onStreet":"Government St","location":"N","xStreet":"Belleville St","countDirection":"NS","Month":5,"Year":2013,"peakHour":167},"geometry":{"type":"Point","coordinates":[-123.36882159305416,48.42103305994022]}},{"type":"Feature","properties":{"id":23156,"countID":33,"onStreet":"Admirals Rd","location":"S","xStreet":"Colville Rd","countDirection":"NS","Month":5,"Year":2013,"peakHour":46},"geometry":{"type":"Point","coordinates":[-123.41761565791393,48.43683205989453]}},{"type":"Feature","properties":{"id":23157,"countID":34,"onStreet":"Shelbourne St","location":"S","xStreet":"McKenzie Ave","countDirection":"NS","Month":5,"Year":2013,"peakHour":35},"geometry":{"type":"Point","coordinates":[-123.33274203450355,48.46827213311002]}},{"type":"Feature","properties":{"id":23225,"countID":3,"onStreet":"E&N Rail Trail","location":"N","xStreet":"Esquimalt Rd","countDirection":"NS","Month":5,"Year":2013,"peakHour":7},"geometry":{"type":"Point","coordinates":[-123.38869810027232,48.430816568151975]}},{"type":"Feature","properties":{"id":23305,"countID":10,"onStreet":"Douglas St","location":"S","xStreet":"Bay St","countDirection":"NS","Month":5,"Year":2013,"peakHour":52},"geometry":{"type":"Point","coordinates":[-123.36530705951395,48.43545934678906]}},{"type":"Feature","properties":{"id":23308,"countID":11,"onStreet":"Blanshard St","location":"S","xStreet":"Bay St","countDirection":"NS","Month":5,"Year":2013,"peakHour":60},"geometry":{"type":"Point","coordinates":[-123.362841575443,48.43499867900939]}},{"type":"Feature","properties":{"id":23311,"countID":22,"onStreet":"Lochside Dr","location":"S","xStreet":"Royal Oak Dr","countDirection":"NS","Month":5,"Year":2013,"peakHour":119},"geometry":{"type":"Point","coordinates":[-123.36178739518392,48.50111771365756]}},{"type":"Feature","properties":{"id":24124,"countID":11,"onStreet":"Blanshard St","location":"S","xStreet":"Bay St","countDirection":"NS","Month":10,"Year":2013,"peakHour":44},"geometry":{"type":"Point","coordinates":[-123.362841575443,48.43499867900939]}},{"type":"Feature","properties":{"id":24145,"countID":22,"onStreet":"Lochside Dr","location":"S","xStreet":"Royal Oak Dr","countDirection":"NS","Month":10,"Year":2013,"peakHour":39},"geometry":{"type":"Point","coordinates":[-123.36178739518392,48.50111771365756]}},{"type":"Feature","properties":{"id":24146,"countID":23,"onStreet":"Fifth St","location":"S","xStreet":"Ocean Ave","countDirection":"NS","Month":10,"Year":2013,"peakHour":11},"geometry":{"type":"Point","coordinates":[-123.40031178925264,48.643793429812156]}},{"type":"Feature","properties":{"id":24147,"countID":34,"onStreet":"Shelbourne St","location":"S","xStreet":"McKenzie Ave","countDirection":"NS","Month":10,"Year":2013,"peakHour":29},"geometry":{"type":"Point","coordinates":[-123.33274203450355,48.46827213311002]}},{"type":"Feature","properties":{"id":24503,"countID":16,"onStreet":"Henderson Rd","location":"S","xStreet":"Cedar Hill Cross Rd","countDirection":"NS","Month":10,"Year":2013,"peakHour":135},"geometry":{"type":"Point","coordinates":[-123.3156686484403,48.458438290730996]}},{"type":"Feature","properties":{"id":24504,"countID":30,"onStreet":"Government St","location":"N","xStreet":"Belleville St","countDirection":"NS","Month":10,"Year":2013,"peakHour":78},"geometry":{"type":"Point","coordinates":[-123.36882159305416,48.42103305994022]}},{"type":"Feature","properties":{"id":24505,"countID":45,"onStreet":"University Dr","location":"S","xStreet":"Ring Rd","countDirection":"NS","Month":10,"Year":2013,"peakHour":145},"geometry":{"type":"Point","coordinates":[-123.31445947175575,48.4602011156107]}},{"type":"Feature","properties":{"id":24506,"countID":5,"onStreet":"Lochside Regional Trail","location":"S","xStreet":"McKenzie Ave","countDirection":"NS","Month":10,"Year":2013,"peakHour":113},"geometry":{"type":"Point","coordinates":[-123.36141697354498,48.470277414630445]}},{"type":"Feature","properties":{"id":24512,"countID":9,"onStreet":"Government St","location":"S","xStreet":"Bay St","countDirection":"NS","Month":10,"Year":2013,"peakHour":45},"geometry":{"type":"Point","coordinates":[-123.36730572991469,48.43553523099169]}},{"type":"Feature","properties":{"id":24729,"countID":10,"onStreet":"Douglas St","location":"S","xStreet":"Bay St","countDirection":"NS","Month":10,"Year":2013,"peakHour":35},"geometry":{"type":"Point","coordinates":[-123.36530705951395,48.43545934678906]}},{"type":"Feature","properties":{"id":24980,"countID":3,"onStreet":"E&N Rail Trail","location":"N","xStreet":"Esquimalt Rd","countDirection":"NS","Month":10,"Year":2013,"peakHour":11},"geometry":{"type":"Point","coordinates":[-123.38869810027232,48.430816568151975]}},{"type":"Feature","properties":{"id":24981,"countID":31,"onStreet":"Lochside Regional Trail","location":"N","xStreet":"Switch Bridge","countDirection":"NS","Month":10,"Year":2013,"peakHour":214},"geometry":{"type":"Point","coordinates":[-123.37725601885208,48.457028744701375]}},{"type":"Feature","properties":{"id":24982,"countID":33,"onStreet":"Admirals Rd","location":"S","xStreet":"Colville Rd","countDirection":"NS","Month":10,"Year":2013,"peakHour":35},"geometry":{"type":"Point","coordinates":[-123.41761565791393,48.43683205989453]}},{"type":"Feature","properties":{"id":24983,"countID":4,"onStreet":"Galloping Goose Regional Trail","location":"S","xStreet":"Information Booth at Switch Bridge","countDirection":"NS","Month":10,"Year":2013,"peakHour":320},"geometry":{"type":"Point","coordinates":[-123.37754441076837,48.45557214844046]}},{"type":"Feature","properties":{"id":24984,"countID":47,"onStreet":"Glanford Ave","location":"N","xStreet":"McKenzie Ave","countDirection":"NS","Month":10,"Year":2013,"peakHour":14},"geometry":{"type":"Point","coordinates":[-123.38807579739172,48.467246648093266]}},{"type":"Feature","properties":{"id":24985,"countID":49,"onStreet":"Lochside Regional Trail","location":"N","xStreet":"Cedar Hill Cross Rd","countDirection":"NS","Month":10,"Year":2013,"peakHour":76},"geometry":{"type":"Point","coordinates":[-123.36062234405433,48.471773503453946]}},{"type":"Feature","properties":{"id":24986,"countID":54,"onStreet":"Shelbourne St","location":"N","xStreet":"Hillside Ave","countDirection":"NS","Month":10,"Year":2013,"peakHour":36},"geometry":{"type":"Point","coordinates":[-123.33329006575971,48.445801702229375]}},{"type":"Feature","properties":{"id":24987,"countID":6,"onStreet":"Interuban Rd","location":"N","xStreet":"Burnside Rd W","countDirection":"NS","Month":10,"Year":2013,"peakHour":66},"geometry":{"type":"Point","coordinates":[-123.39449549745305,48.45920330553605]}},{"type":"Feature","properties":{"id":25237,"countID":44,"onStreet":"West Saanich Rd","location":"N","xStreet":"Wallace Dr","countDirection":"NS","Month":10,"Year":2013,"peakHour":11},"geometry":{"type":"Point","coordinates":[-123.44578410548556,48.57558838461289]}},{"type":"Feature","properties":{"id":25240,"countID":7,"onStreet":"E&N Rail Trail","location":"S","xStreet":"Portage Park Trail","countDirection":"NS","Month":10,"Year":2013,"peakHour":26},"geometry":{"type":"Point","coordinates":[-123.43147854051468,48.45175381135078]}},{"type":"Feature","properties":{"id":26090,"countID":16,"onStreet":"Henderson Rd","location":"S","xStreet":"Cedar Hill Cross Rd","countDirection":"NS","Month":5,"Year":2014,"peakHour":114},"geometry":{"type":"Point","coordinates":[-123.3156686484403,48.458438290730996]}},{"type":"Feature","properties":{"id":26091,"countID":22,"onStreet":"Lochside Dr","location":"S","xStreet":"Royal Oak Dr","countDirection":"NS","Month":5,"Year":2014,"peakHour":88},"geometry":{"type":"Point","coordinates":[-123.36178739518392,48.50111771365756]}},{"type":"Feature","properties":{"id":26092,"countID":31,"onStreet":"Lochside Regional Trail","location":"N","xStreet":"Switch Bridge","countDirection":"NS","Month":5,"Year":2014,"peakHour":280},"geometry":{"type":"Point","coordinates":[-123.37725601885208,48.457028744701375]}},{"type":"Feature","properties":{"id":26093,"countID":33,"onStreet":"Admirals Rd","location":"S","xStreet":"Colville Rd","countDirection":"NS","Month":5,"Year":2014,"peakHour":24},"geometry":{"type":"Point","coordinates":[-123.41761565791393,48.43683205989453]}},{"type":"Feature","properties":{"id":26094,"countID":4,"onStreet":"Galloping Goose Regional Trail","location":"S","xStreet":"Information Booth at Switch Bridge","countDirection":"NS","Month":5,"Year":2014,"peakHour":411},"geometry":{"type":"Point","coordinates":[-123.37754441076837,48.45557214844046]}},{"type":"Feature","properties":{"id":26095,"countID":45,"onStreet":"University Dr","location":"S","xStreet":"Ring Rd","countDirection":"NS","Month":5,"Year":2014,"peakHour":116},"geometry":{"type":"Point","coordinates":[-123.31445947175575,48.4602011156107]}},{"type":"Feature","properties":{"id":26244,"countID":23,"onStreet":"Fifth St","location":"S","xStreet":"Ocean Ave","countDirection":"NS","Month":5,"Year":2014,"peakHour":4},"geometry":{"type":"Point","coordinates":[-123.40031178925264,48.643793429812156]}},{"type":"Feature","properties":{"id":26245,"countID":30,"onStreet":"Government St","location":"N","xStreet":"Belleville St","countDirection":"NS","Month":5,"Year":2014,"peakHour":82},"geometry":{"type":"Point","coordinates":[-123.36882159305416,48.42103305994022]}},{"type":"Feature","properties":{"id":26246,"countID":44,"onStreet":"West Saanich Rd","location":"N","xStreet":"Wallace Dr","countDirection":"NS","Month":5,"Year":2014,"peakHour":3},"geometry":{"type":"Point","coordinates":[-123.44578410548556,48.57558838461289]}},{"type":"Feature","properties":{"id":26247,"countID":5,"onStreet":"Lochside Regional Trail","location":"S","xStreet":"McKenzie Ave","countDirection":"NS","Month":5,"Year":2014,"peakHour":119},"geometry":{"type":"Point","coordinates":[-123.36141697354498,48.470277414630445]}},{"type":"Feature","properties":{"id":26583,"countID":10,"onStreet":"Douglas St","location":"S","xStreet":"Bay St","countDirection":"NS","Month":10,"Year":2014,"peakHour":48},"geometry":{"type":"Point","coordinates":[-123.36530705951395,48.43545934678906]}},{"type":"Feature","properties":{"id":26587,"countID":11,"onStreet":"Blanshard St","location":"S","xStreet":"Bay St","countDirection":"NS","Month":10,"Year":2014,"peakHour":70},"geometry":{"type":"Point","coordinates":[-123.362841575443,48.43499867900939]}},{"type":"Feature","properties":{"id":26610,"countID":30,"onStreet":"Government St","location":"N","xStreet":"Belleville St","countDirection":"NS","Month":10,"Year":2014,"peakHour":156},"geometry":{"type":"Point","coordinates":[-123.36882159305416,48.42103305994022]}},{"type":"Feature","properties":{"id":26629,"countID":9,"onStreet":"Government St","location":"S","xStreet":"Bay St","countDirection":"NS","Month":10,"Year":2014,"peakHour":66},"geometry":{"type":"Point","coordinates":[-123.36730572991469,48.43553523099169]}},{"type":"Feature","properties":{"id":26806,"countID":24,"onStreet":"Lochside Regional Trail","location":"S","xStreet":"Ardwell Ave","countDirection":"NS","Month":10,"Year":2014,"peakHour":44},"geometry":{"type":"Point","coordinates":[-123.41631625673523,48.66236226763453]}},{"type":"Feature","properties":{"id":26810,"countID":54,"onStreet":"Shelbourne St","location":"N","xStreet":"Hillside Ave","countDirection":"NS","Month":10,"Year":2014,"peakHour":37},"geometry":{"type":"Point","coordinates":[-123.33329006575971,48.445801702229375]}},{"type":"Feature","properties":{"id":27130,"countID":33,"onStreet":"Admirals Rd","location":"S","xStreet":"Colville Rd","countDirection":"NS","Month":10,"Year":2014,"peakHour":36},"geometry":{"type":"Point","coordinates":[-123.41761565791393,48.43683205989453]}},{"type":"Feature","properties":{"id":27131,"countID":47,"onStreet":"Glanford Ave","location":"N","xStreet":"McKenzie Ave","countDirection":"NS","Month":10,"Year":2014,"peakHour":21},"geometry":{"type":"Point","coordinates":[-123.38807579739172,48.467246648093266]}},{"type":"Feature","properties":{"id":27285,"countID":16,"onStreet":"Henderson Rd","location":"S","xStreet":"Cedar Hill Cross Rd","countDirection":"NS","Month":10,"Year":2014,"peakHour":182},"geometry":{"type":"Point","coordinates":[-123.3156686484403,48.458438290730996]}},{"type":"Feature","properties":{"id":27286,"countID":31,"onStreet":"Lochside Regional Trail","location":"N","xStreet":"Switch Bridge","countDirection":"NS","Month":10,"Year":2014,"peakHour":263},"geometry":{"type":"Point","coordinates":[-123.37725601885208,48.457028744701375]}},{"type":"Feature","properties":{"id":27288,"countID":4,"onStreet":"Galloping Goose Regional Trail","location":"S","xStreet":"Information Booth at Switch Bridge","countDirection":"NS","Month":10,"Year":2014,"peakHour":366},"geometry":{"type":"Point","coordinates":[-123.37754441076837,48.45557214844046]}},{"type":"Feature","properties":{"id":27289,"countID":45,"onStreet":"University Dr","location":"S","xStreet":"Ring Rd","countDirection":"NS","Month":10,"Year":2014,"peakHour":192},"geometry":{"type":"Point","coordinates":[-123.31445947175575,48.4602011156107]}},{"type":"Feature","properties":{"id":27311,"countID":7,"onStreet":"E&N Rail Trail","location":"S","xStreet":"Portage Park Trail","countDirection":"NS","Month":10,"Year":2014,"peakHour":74},"geometry":{"type":"Point","coordinates":[-123.43147854051468,48.45175381135078]}},{"type":"Feature","properties":{"id":27314,"countID":8,"onStreet":"Galloping Goose Regional Trail","location":"S","xStreet":"Selkirk Trestle","countDirection":"NS","Month":10,"Year":2014,"peakHour":348},"geometry":{"type":"Point","coordinates":[-123.38292163826003,48.437610962862614]}},{"type":"Feature","properties":{"id":27593,"countID":34,"onStreet":"Shelbourne St","location":"S","xStreet":"McKenzie Ave","countDirection":"NS","Month":10,"Year":2014,"peakHour":34},"geometry":{"type":"Point","coordinates":[-123.33274203450355,48.46827213311002]}},{"type":"Feature","properties":{"id":27754,"countID":22,"onStreet":"Lochside Dr","location":"S","xStreet":"Royal Oak Dr","countDirection":"NS","Month":10,"Year":2014,"peakHour":80},"geometry":{"type":"Point","coordinates":[-123.36178739518392,48.50111771365756]}},{"type":"Feature","properties":{"id":27756,"countID":5,"onStreet":"Lochside Regional Trail","location":"S","xStreet":"McKenzie Ave","countDirection":"NS","Month":10,"Year":2014,"peakHour":168},"geometry":{"type":"Point","coordinates":[-123.36141697354498,48.470277414630445]}},{"type":"Feature","properties":{"id":28448,"countID":30,"onStreet":"Government St","location":"N","xStreet":"Belleville St","countDirection":"NS","Month":5,"Year":2015,"peakHour":122},"geometry":{"type":"Point","coordinates":[-123.36882159305416,48.42103305994022]}},{"type":"Feature","properties":{"id":28667,"countID":3,"onStreet":"E&N Rail Trail","location":"N","xStreet":"Esquimalt Rd","countDirection":"NS","Month":5,"Year":2015,"peakHour":4},"geometry":{"type":"Point","coordinates":[-123.38869810027232,48.430816568151975]}},{"type":"Feature","properties":{"id":28841,"countID":10,"onStreet":"Douglas St","location":"S","xStreet":"Bay St","countDirection":"NS","Month":5,"Year":2015,"peakHour":39},"geometry":{"type":"Point","coordinates":[-123.36530705951395,48.43545934678906]}},{"type":"Feature","properties":{"id":28846,"countID":16,"onStreet":"Henderson Rd","location":"S","xStreet":"Cedar Hill Cross Rd","countDirection":"NS","Month":5,"Year":2015,"peakHour":126},"geometry":{"type":"Point","coordinates":[-123.3156686484403,48.458438290730996]}},{"type":"Feature","properties":{"id":28847,"countID":45,"onStreet":"University Dr","location":"S","xStreet":"Ring Rd","countDirection":"NS","Month":5,"Year":2015,"peakHour":115},"geometry":{"type":"Point","coordinates":[-123.31445947175575,48.4602011156107]}},{"type":"Feature","properties":{"id":28865,"countID":9,"onStreet":"Government St","location":"S","xStreet":"Bay St","countDirection":"NS","Month":5,"Year":2015,"peakHour":43},"geometry":{"type":"Point","coordinates":[-123.36730572991469,48.43553523099169]}},{"type":"Feature","properties":{"id":28959,"countID":14,"onStreet":"Vancouver St","location":"S","xStreet":"Fort St","countDirection":"NS","Month":5,"Year":2015,"peakHour":92},"geometry":{"type":"Point","coordinates":[-123.3569686289131,48.423453727399675]}},{"type":"Feature","properties":{"id":28960,"countID":22,"onStreet":"Lochside Dr","location":"S","xStreet":"Royal Oak Dr","countDirection":"NS","Month":5,"Year":2015,"peakHour":85},"geometry":{"type":"Point","coordinates":[-123.36178739518392,48.50111771365756]}},{"type":"Feature","properties":{"id":28961,"countID":34,"onStreet":"Shelbourne St","location":"S","xStreet":"McKenzie Ave","countDirection":"NS","Month":5,"Year":2015,"peakHour":29},"geometry":{"type":"Point","coordinates":[-123.33274203450355,48.46827213311002]}},{"type":"Feature","properties":{"id":28962,"countID":5,"onStreet":"Lochside Regional Trail","location":"S","xStreet":"McKenzie Ave","countDirection":"NS","Month":5,"Year":2015,"peakHour":196},"geometry":{"type":"Point","coordinates":[-123.36141697354498,48.470277414630445]}},{"type":"Feature","properties":{"id":28973,"countID":7,"onStreet":"E&N Rail Trail","location":"S","xStreet":"Portage Park Trail","countDirection":"NS","Month":5,"Year":2015,"peakHour":83},"geometry":{"type":"Point","coordinates":[-123.43147854051468,48.45175381135078]}},{"type":"Feature","properties":{"id":29243,"countID":11,"onStreet":"Blanshard St","location":"S","xStreet":"Bay St","countDirection":"NS","Month":5,"Year":2015,"peakHour":48},"geometry":{"type":"Point","coordinates":[-123.362841575443,48.43499867900939]}},{"type":"Feature","properties":{"id":29403,"countID":24,"onStreet":"Lochside Regional Trail","location":"S","xStreet":"Ardwell Ave","countDirection":"NS","Month":5,"Year":2015,"peakHour":47},"geometry":{"type":"Point","coordinates":[-123.41631625673523,48.66236226763453]}},{"type":"Feature","properties":{"id":29404,"countID":33,"onStreet":"Admirals Rd","location":"S","xStreet":"Colville Rd","countDirection":"NS","Month":5,"Year":2015,"peakHour":69},"geometry":{"type":"Point","coordinates":[-123.41761565791393,48.43683205989453]}},{"type":"Feature","properties":{"id":29867,"countID":10,"onStreet":"Douglas St","location":"S","xStreet":"Bay St","countDirection":"NS","Month":10,"Year":2015,"peakHour":24},"geometry":{"type":"Point","coordinates":[-123.36530705951395,48.43545934678906]}},{"type":"Feature","properties":{"id":29875,"countID":16,"onStreet":"Henderson Rd","location":"S","xStreet":"Cedar Hill Cross Rd","countDirection":"NS","Month":10,"Year":2015,"peakHour":224},"geometry":{"type":"Point","coordinates":[-123.3156686484403,48.458438290730996]}},{"type":"Feature","properties":{"id":29876,"countID":45,"onStreet":"University Dr","location":"S","xStreet":"Ring Rd","countDirection":"NS","Month":10,"Year":2015,"peakHour":226},"geometry":{"type":"Point","coordinates":[-123.31445947175575,48.4602011156107]}},{"type":"Feature","properties":{"id":29884,"countID":7,"onStreet":"E&N Rail Trail","location":"S","xStreet":"Portage Park Trail","countDirection":"NS","Month":10,"Year":2015,"peakHour":94},"geometry":{"type":"Point","coordinates":[-123.43147854051468,48.45175381135078]}},{"type":"Feature","properties":{"id":30083,"countID":1,"onStreet":"Wharf St","location":"N","xStreet":"Fort St","countDirection":"NS","Month":10,"Year":2015,"peakHour":207},"geometry":{"type":"Point","coordinates":[-123.3698805351991,48.42552647178671]}},{"type":"Feature","properties":{"id":30088,"countID":49,"onStreet":"Lochside Regional Trail","location":"N","xStreet":"Cedar Hill Cross Rd","countDirection":"NS","Month":10,"Year":2015,"peakHour":67},"geometry":{"type":"Point","coordinates":[-123.36062234405433,48.471773503453946]}},{"type":"Feature","properties":{"id":30182,"countID":36,"onStreet":"Shelbourne St","location":"N","xStreet":"Pear St","countDirection":"NS","Month":10,"Year":2015,"peakHour":20},"geometry":{"type":"Point","coordinates":[-123.33297191411926,48.45890405636096]}},{"type":"Feature","properties":{"id":30183,"countID":5,"onStreet":"Lochside Regional Trail","location":"S","xStreet":"McKenzie Ave","countDirection":"NS","Month":10,"Year":2015,"peakHour":101},"geometry":{"type":"Point","coordinates":[-123.36141697354498,48.470277414630445]}},{"type":"Feature","properties":{"id":30319,"countID":34,"onStreet":"Shelbourne St","location":"S","xStreet":"McKenzie Ave","countDirection":"NS","Month":10,"Year":2015,"peakHour":18},"geometry":{"type":"Point","coordinates":[-123.33274203450355,48.46827213311002]}},{"type":"Feature","properties":{"id":30513,"countID":1,"onStreet":"Wharf St","location":"N","xStreet":"Fort St","countDirection":"NS","Month":5,"Year":2016,"peakHour":244},"geometry":{"type":"Point","coordinates":[-123.3698805351991,48.42552647178671]}},{"type":"Feature","properties":{"id":30526,"countID":3,"onStreet":"E&N Rail Trail","location":"N","xStreet":"Esquimalt Rd","countDirection":"NS","Month":5,"Year":2016,"peakHour":61},"geometry":{"type":"Point","coordinates":[-123.38869810027232,48.430816568151975]}},{"type":"Feature","properties":{"id":30527,"countID":48,"onStreet":"Lochside Regional Trail ","location":"S","xStreet":"Quadra St","countDirection":"NS","Month":5,"Year":2016,"peakHour":167},"geometry":{"type":"Point","coordinates":[-123.36302202331194,48.467961903986996]}},{"type":"Feature","properties":{"id":30644,"countID":5,"onStreet":"Lochside Regional Trail","location":"S","xStreet":"McKenzie Ave","countDirection":"NS","Month":5,"Year":2016,"peakHour":172},"geometry":{"type":"Point","coordinates":[-123.36141697354498,48.470277414630445]}},{"type":"Feature","properties":{"id":30836,"countID":23,"onStreet":"Fifth St","location":"S","xStreet":"Ocean Ave","countDirection":"NS","Month":5,"Year":2016,"peakHour":59},"geometry":{"type":"Point","coordinates":[-123.40031178925264,48.643793429812156]}},{"type":"Feature","properties":{"id":30837,"countID":36,"onStreet":"Shelbourne St","location":"N","xStreet":"Pear St","countDirection":"NS","Month":5,"Year":2016,"peakHour":21},"geometry":{"type":"Point","coordinates":[-123.33297191411926,48.45890405636096]}},{"type":"Feature","properties":{"id":30838,"countID":47,"onStreet":"Glanford Ave","location":"N","xStreet":"McKenzie Ave","countDirection":"NS","Month":5,"Year":2016,"peakHour":21},"geometry":{"type":"Point","coordinates":[-123.38807579739172,48.467246648093266]}},{"type":"Feature","properties":{"id":30843,"countID":54,"onStreet":"Shelbourne St","location":"N","xStreet":"Hillside Ave","countDirection":"NS","Month":5,"Year":2016,"peakHour":53},"geometry":{"type":"Point","coordinates":[-123.33329006575971,48.445801702229375]}},{"type":"Feature","properties":{"id":30956,"countID":13,"onStreet":"Cook St","location":"S","xStreet":"Fort St","countDirection":"NS","Month":5,"Year":2016,"peakHour":72},"geometry":{"type":"Point","coordinates":[-123.35412213668138,48.42312105057403]}},{"type":"Feature","properties":{"id":30957,"countID":14,"onStreet":"Vancouver St","location":"S","xStreet":"Fort St","countDirection":"NS","Month":5,"Year":2016,"peakHour":95},"geometry":{"type":"Point","coordinates":[-123.3569686289131,48.423453727399675]}},{"type":"Feature","properties":{"id":30968,"countID":7,"onStreet":"E&N Rail Trail","location":"S","xStreet":"Portage Park Trail","countDirection":"NS","Month":5,"Year":2016,"peakHour":167},"geometry":{"type":"Point","coordinates":[-123.43147854051468,48.45175381135078]}},{"type":"Feature","properties":{"id":30971,"countID":8,"onStreet":"Galloping Goose Regional Trail","location":"S","xStreet":"Selkirk Trestle","countDirection":"NS","Month":5,"Year":2016,"peakHour":332},"geometry":{"type":"Point","coordinates":[-123.38292163826003,48.437610962862614]}},{"type":"Feature","properties":{"id":31174,"countID":22,"onStreet":"Lochside Dr","location":"S","xStreet":"Royal Oak Dr","countDirection":"NS","Month":5,"Year":2016,"peakHour":68},"geometry":{"type":"Point","coordinates":[-123.36178739518392,48.50111771365756]}},{"type":"Feature","properties":{"id":31500,"countID":16,"onStreet":"Henderson Rd","location":"S","xStreet":"Cedar Hill Cross Rd","countDirection":"NS","Month":10,"Year":2016,"peakHour":186},"geometry":{"type":"Point","coordinates":[-123.3156686484403,48.458438290730996]}},{"type":"Feature","properties":{"id":31501,"countID":22,"onStreet":"Lochside Dr","location":"S","xStreet":"Royal Oak Dr","countDirection":"NS","Month":10,"Year":2016,"peakHour":56},"geometry":{"type":"Point","coordinates":[-123.36178739518392,48.50111771365756]}},{"type":"Feature","properties":{"id":31502,"countID":31,"onStreet":"Lochside Regional Trail","location":"N","xStreet":"Switch Bridge","countDirection":"NS","Month":10,"Year":2016,"peakHour":222},"geometry":{"type":"Point","coordinates":[-123.37725601885208,48.457028744701375]}},{"type":"Feature","properties":{"id":31503,"countID":4,"onStreet":"Galloping Goose Regional Trail","location":"S","xStreet":"Information Booth at Switch Bridge","countDirection":"NS","Month":10,"Year":2016,"peakHour":306},"geometry":{"type":"Point","coordinates":[-123.37754441076837,48.45557214844046]}},{"type":"Feature","properties":{"id":31504,"countID":45,"onStreet":"University Dr","location":"S","xStreet":"Ring Rd","countDirection":"NS","Month":10,"Year":2016,"peakHour":183},"geometry":{"type":"Point","coordinates":[-123.31445947175575,48.4602011156107]}},{"type":"Feature","properties":{"id":31505,"countID":5,"onStreet":"Lochside Regional Trail","location":"S","xStreet":"McKenzie Ave","countDirection":"NS","Month":10,"Year":2016,"peakHour":143},"geometry":{"type":"Point","coordinates":[-123.36141697354498,48.470277414630445]}},{"type":"Feature","properties":{"id":31629,"countID":24,"onStreet":"Lochside Regional Trail","location":"S","xStreet":"Ardwell Ave","countDirection":"NS","Month":10,"Year":2016,"peakHour":42},"geometry":{"type":"Point","coordinates":[-123.41631625673523,48.66236226763453]}},{"type":"Feature","properties":{"id":31631,"countID":33,"onStreet":"Admirals Rd","location":"S","xStreet":"Colville Rd","countDirection":"NS","Month":10,"Year":2016,"peakHour":68},"geometry":{"type":"Point","coordinates":[-123.41761565791393,48.43683205989453]}},{"type":"Feature","properties":{"id":31796,"countID":1,"onStreet":"Wharf St","location":"N","xStreet":"Fort St","countDirection":"NS","Month":10,"Year":2016,"peakHour":251},"geometry":{"type":"Point","coordinates":[-123.3698805351991,48.42552647178671]}},{"type":"Feature","properties":{"id":31808,"countID":47,"onStreet":"Glanford Ave","location":"N","xStreet":"McKenzie Ave","countDirection":"NS","Month":10,"Year":2016,"peakHour":19},"geometry":{"type":"Point","coordinates":[-123.38807579739172,48.467246648093266]}},{"type":"Feature","properties":{"id":31817,"countID":7,"onStreet":"E&N Rail Trail","location":"S","xStreet":"Portage Park Trail","countDirection":"NS","Month":10,"Year":2016,"peakHour":104},"geometry":{"type":"Point","coordinates":[-123.43147854051468,48.45175381135078]}},{"type":"Feature","properties":{"id":31940,"countID":36,"onStreet":"Shelbourne St","location":"N","xStreet":"Pear St","countDirection":"NS","Month":10,"Year":2016,"peakHour":25},"geometry":{"type":"Point","coordinates":[-123.33297191411926,48.45890405636096]}},{"type":"Feature","properties":{"id":31942,"countID":49,"onStreet":"Lochside Regional Trail","location":"N","xStreet":"Cedar Hill Cross Rd","countDirection":"NS","Month":10,"Year":2016,"peakHour":59},"geometry":{"type":"Point","coordinates":[-123.36062234405433,48.471773503453946]}},{"type":"Feature","properties":{"id":32136,"countID":34,"onStreet":"Shelbourne St","location":"S","xStreet":"McKenzie Ave","countDirection":"NS","Month":10,"Year":2016,"peakHour":23},"geometry":{"type":"Point","coordinates":[-123.33274203450355,48.46827213311002]}},{"type":"Feature","properties":{"id":32139,"countID":54,"onStreet":"Shelbourne St","location":"N","xStreet":"Hillside Ave","countDirection":"NS","Month":10,"Year":2016,"peakHour":29},"geometry":{"type":"Point","coordinates":[-123.33329006575971,48.445801702229375]}},{"type":"Feature","properties":{"id":44264,"countID":28,"onStreet":"Pandora St","location":"E","xStreet":"Blanshard St","countDirection":"EW","Month":10,"Year":2011,"peakHour":55},"geometry":{"type":"Point","coordinates":[-123.36081357555369,48.42765103630389]}},{"type":"Feature","properties":{"id":44596,"countID":28,"onStreet":"Pandora St","location":"E","xStreet":"Blanshard St","countDirection":"EW","Month":10,"Year":2012,"peakHour":82},"geometry":{"type":"Point","coordinates":[-123.36081357555369,48.42765103630389]}},{"type":"Feature","properties":{"id":46205,"countID":28,"onStreet":"Pandora St","location":"E","xStreet":"Blanshard St","countDirection":"EW","Month":5,"Year":2013,"peakHour":102},"geometry":{"type":"Point","coordinates":[-123.36081357555369,48.42765103630389]}},{"type":"Feature","properties":{"id":47789,"countID":28,"onStreet":"Pandora St","location":"E","xStreet":"Blanshard St","countDirection":"EW","Month":10,"Year":2013,"peakHour":46},"geometry":{"type":"Point","coordinates":[-123.36081357555369,48.42765103630389]}},{"type":"Feature","properties":{"id":49820,"countID":28,"onStreet":"Pandora St","location":"E","xStreet":"Blanshard St","countDirection":"EW","Month":10,"Year":2014,"peakHour":79},"geometry":{"type":"Point","coordinates":[-123.36081357555369,48.42765103630389]}},{"type":"Feature","properties":{"id":51647,"countID":28,"onStreet":"Pandora St","location":"E","xStreet":"Blanshard St","countDirection":"EW","Month":5,"Year":2015,"peakHour":93},"geometry":{"type":"Point","coordinates":[-123.36081357555369,48.42765103630389]}},{"type":"Feature","properties":{"id":51649,"countID":52,"onStreet":"Pandora Ave","location":"E","xStreet":"Cook St","countDirection":"EW","Month":5,"Year":2015,"peakHour":60},"geometry":{"type":"Point","coordinates":[-123.35285146351349,48.42712532251511]}},{"type":"Feature","properties":{"id":54793,"countID":28,"onStreet":"Pandora St","location":"E","xStreet":"Blanshard St","countDirection":"EW","Month":10,"Year":2016,"peakHour":72},"geometry":{"type":"Point","coordinates":[-123.36081357555369,48.42765103630389]}},{"type":"Feature","properties":{"id":55579,"countID":1,"onStreet":"Wharf St","location":"N","xStreet":"Fort St","countDirection":"NS","Month":10,"Year":2017,"peakHour":188},"geometry":{"type":"Point","coordinates":[-123.3698805351991,48.42552647178671]}},{"type":"Feature","properties":{"id":55599,"countID":2,"onStreet":"Johnson St Bridge","location":"W","xStreet":"Wharf St","countDirection":"EW","Month":10,"Year":2017,"peakHour":384},"geometry":{"type":"Point","coordinates":[-123.37206702285776,48.428034713854494]}},{"type":"Feature","properties":{"id":55619,"countID":3,"onStreet":"E&N Rail Trail","location":"N","xStreet":"Esquimalt Rd","countDirection":"NS","Month":10,"Year":2017,"peakHour":45},"geometry":{"type":"Point","coordinates":[-123.38869810027232,48.430816568151975]}},{"type":"Feature","properties":{"id":55639,"countID":4,"onStreet":"Galloping Goose Regional Trail","location":"S","xStreet":"Information Booth at Switch Bridge","countDirection":"NS","Month":10,"Year":2017,"peakHour":271},"geometry":{"type":"Point","coordinates":[-123.37754441076837,48.45557214844046]}},{"type":"Feature","properties":{"id":55659,"countID":5,"onStreet":"Lochside Regional Trail","location":"S","xStreet":"McKenzie Ave","countDirection":"NS","Month":10,"Year":2017,"peakHour":83},"geometry":{"type":"Point","coordinates":[-123.36141697354498,48.470277414630445]}},{"type":"Feature","properties":{"id":55679,"countID":6,"onStreet":"Interuban Rd","location":"N","xStreet":"Burnside Rd W","countDirection":"NS","Month":10,"Year":2017,"peakHour":40},"geometry":{"type":"Point","coordinates":[-123.39449549745305,48.45920330553605]}},{"type":"Feature","properties":{"id":55699,"countID":7,"onStreet":"E&N Rail Trail","location":"S","xStreet":"Portage Park Trail","countDirection":"NS","Month":10,"Year":2017,"peakHour":98},"geometry":{"type":"Point","coordinates":[-123.43147854051468,48.45175381135078]}},{"type":"Feature","properties":{"id":55719,"countID":8,"onStreet":"Galloping Goose Regional Trail","location":"S","xStreet":"Selkirk Trestle","countDirection":"NS","Month":10,"Year":2017,"peakHour":314},"geometry":{"type":"Point","coordinates":[-123.38292163826003,48.437610962862614]}},{"type":"Feature","properties":{"id":55739,"countID":12,"onStreet":"Haultain St","location":"W","xStreet":"Forbes St","countDirection":"EW","Month":10,"Year":2017,"peakHour":75},"geometry":{"type":"Point","coordinates":[-123.33920825298077,48.43614184489773]}},{"type":"Feature","properties":{"id":55759,"countID":13,"onStreet":"Cook St","location":"S","xStreet":"Fort St","countDirection":"NS","Month":10,"Year":2017,"peakHour":46},"geometry":{"type":"Point","coordinates":[-123.35412213668138,48.42312105057403]}},{"type":"Feature","properties":{"id":55779,"countID":14,"onStreet":"Vancouver St","location":"S","xStreet":"Fort St","countDirection":"NS","Month":10,"Year":2017,"peakHour":83},"geometry":{"type":"Point","coordinates":[-123.3569686289131,48.423453727399675]}},{"type":"Feature","properties":{"id":55799,"countID":15,"onStreet":"Humboldt St","location":"E","xStreet":"Blanshard St","countDirection":"EW","Month":10,"Year":2017,"peakHour":32},"geometry":{"type":"Point","coordinates":[-123.3628058423323,48.41985153295985]}},{"type":"Feature","properties":{"id":55819,"countID":16,"onStreet":"Henderson Rd","location":"S","xStreet":"Cedar Hill Cross Rd","countDirection":"NS","Month":10,"Year":2017,"peakHour":149},"geometry":{"type":"Point","coordinates":[-123.3156686484403,48.458438290730996]}},{"type":"Feature","properties":{"id":55839,"countID":17,"onStreet":"McKenzie Ave","location":"E","xStreet":"Gordon Head Rd","countDirection":"EW","Month":10,"Year":2017,"peakHour":74},"geometry":{"type":"Point","coordinates":[-123.31867673819492,48.468519940721634]}},{"type":"Feature","properties":{"id":55859,"countID":18,"onStreet":"Oak Bay Ave","location":"E","xStreet":"Foul Bay Rd","countDirection":"EW","Month":10,"Year":2017,"peakHour":35},"geometry":{"type":"Point","coordinates":[-123.32229414501802,48.42645426891452]}},{"type":"Feature","properties":{"id":55879,"countID":19,"onStreet":"Dallas Rd","location":"E","xStreet":"Cook St","countDirection":"EW","Month":10,"Year":2017,"peakHour":18},"geometry":{"type":"Point","coordinates":[-123.35748248190215,48.407898983825916]}},{"type":"Feature","properties":{"id":55899,"countID":20,"onStreet":"Fort St","location":"N","xStreet":"Oak Bay Ave","countDirection":"EW","Month":10,"Year":2017,"peakHour":47},"geometry":{"type":"Point","coordinates":[-123.33604135970207,48.42695745577476]}},{"type":"Feature","properties":{"id":55911,"countID":22,"onStreet":"Lochside Dr","location":"S","xStreet":"Royal Oak Dr","countDirection":"NS","Month":10,"Year":2017,"peakHour":48},"geometry":{"type":"Point","coordinates":[-123.36178739518392,48.50111771365756]}},{"type":"Feature","properties":{"id":55931,"countID":25,"onStreet":"West Saanich Rd","location":"N","xStreet":"Interurban Rd","countDirection":"NS","Month":10,"Year":2017,"peakHour":12},"geometry":{"type":"Point","coordinates":[-123.41467755807633,48.51153313067925]}},{"type":"Feature","properties":{"id":55951,"countID":27,"onStreet":"Richardson St","location":"E","xStreet":"Cook St","countDirection":"EW","Month":10,"Year":2017,"peakHour":63},"geometry":{"type":"Point","coordinates":[-123.3544390519858,48.41958031408161]}},{"type":"Feature","properties":{"id":55971,"countID":28,"onStreet":"Pandora St","location":"E","xStreet":"Blanshard St","countDirection":"EW","Month":10,"Year":2017,"peakHour":147},"geometry":{"type":"Point","coordinates":[-123.36081357555369,48.42765103630389]}},{"type":"Feature","properties":{"id":55991,"countID":29,"onStreet":"Johnson St","location":"E","xStreet":"Blanshard St","countDirection":"EW","Month":10,"Year":2017,"peakHour":49},"geometry":{"type":"Point","coordinates":[-123.36090655020497,48.42675635586537]}},{"type":"Feature","properties":{"id":56011,"countID":31,"onStreet":"Lochside Regional Trail","location":"N","xStreet":"Switch Bridge","countDirection":"NS","Month":10,"Year":2017,"peakHour":143},"geometry":{"type":"Point","coordinates":[-123.37725601885208,48.457028744701375]}},{"type":"Feature","properties":{"id":56031,"countID":32,"onStreet":"Galloping Goose Regional Trail","location":"N","xStreet":"Crease Rd","countDirection":"EW","Month":10,"Year":2017,"peakHour":146},"geometry":{"type":"Point","coordinates":[-123.37837917500114,48.456287616850915]}},{"type":"Feature","properties":{"id":56051,"countID":33,"onStreet":"Admirals Rd","location":"S","xStreet":"Colville Rd","countDirection":"NS","Month":10,"Year":2017,"peakHour":93},"geometry":{"type":"Point","coordinates":[-123.41761565791393,48.43683205989453]}},{"type":"Feature","properties":{"id":56059,"countID":34,"onStreet":"Shelbourne St","location":"S","xStreet":"McKenzie Ave","countDirection":"NS","Month":10,"Year":2017,"peakHour":25},"geometry":{"type":"Point","coordinates":[-123.33274203450355,48.46827213311002]}},{"type":"Feature","properties":{"id":56071,"countID":35,"onStreet":"McKenzie Ave","location":"E","xStreet":"Shelbourne St","countDirection":"EW","Month":10,"Year":2017,"peakHour":47},"geometry":{"type":"Point","coordinates":[-123.33139121881504,48.468590428237036]}},{"type":"Feature","properties":{"id":56091,"countID":36,"onStreet":"Shelbourne St","location":"N","xStreet":"Pear St","countDirection":"NS","Month":10,"Year":2017,"peakHour":19},"geometry":{"type":"Point","coordinates":[-123.33297191411926,48.45890405636096]}},{"type":"Feature","properties":{"id":56111,"countID":38,"onStreet":"Goldstream Ave","location":"W","xStreet":"Veterans Memorial Pky","countDirection":"EW","Month":10,"Year":2017,"peakHour":11},"geometry":{"type":"Point","coordinates":[-123.4965031247219,48.44781268881178]}},{"type":"Feature","properties":{"id":56131,"countID":39,"onStreet":"Wale Rd","location":"W","xStreet":"Island Hwy","countDirection":"EW","Month":10,"Year":2017,"peakHour":18},"geometry":{"type":"Point","coordinates":[-123.46833045880253,48.445505252474725]}},{"type":"Feature","properties":{"id":56151,"countID":40,"onStreet":"Esquimalt Rd","location":"W","xStreet":"Lampson St","countDirection":"EW","Month":10,"Year":2017,"peakHour":34},"geometry":{"type":"Point","coordinates":[-123.40728077044847,48.429642213151084]}},{"type":"Feature","properties":{"id":56171,"countID":41,"onStreet":"Craigflower Rd","location":"E","xStreet":"Admirals Rd","countDirection":"EW","Month":10,"Year":2017,"peakHour":20},"geometry":{"type":"Point","coordinates":[-123.42400460998752,48.45063821135261]}},{"type":"Feature","properties":{"id":56179,"countID":42,"onStreet":"Sooke Rd","location":"N","xStreet":"Otter Point Rd","countDirection":"EW","Month":10,"Year":2017,"peakHour":4},"geometry":{"type":"Point","coordinates":[-123.72340885352187,48.37771955947984]}},{"type":"Feature","properties":{"id":56191,"countID":43,"onStreet":"Galloping Goose Regional Trail","location":"S","xStreet":"E&N Rail Trail","countDirection":"EW","Month":10,"Year":2017,"peakHour":108},"geometry":{"type":"Point","coordinates":[-123.4548127916809,48.4609323392453]}},{"type":"Feature","properties":{"id":56211,"countID":44,"onStreet":"West Saanich Rd","location":"N","xStreet":"Wallace Dr","countDirection":"NS","Month":10,"Year":2017,"peakHour":4},"geometry":{"type":"Point","coordinates":[-123.44578410548556,48.57558838461289]}},{"type":"Feature","properties":{"id":56231,"countID":45,"onStreet":"University Dr","location":"S","xStreet":"Ring Rd","countDirection":"NS","Month":10,"Year":2017,"peakHour":157},"geometry":{"type":"Point","coordinates":[-123.31445947175575,48.4602011156107]}},{"type":"Feature","properties":{"id":56251,"countID":46,"onStreet":"Sooke Rd","location":"W","xStreet":"Sooke River Rd","countDirection":"EW","Month":10,"Year":2017,"peakHour":6},"geometry":{"type":"Point","coordinates":[-123.70093300482644,48.38740414058521]}},{"type":"Feature","properties":{"id":56263,"countID":49,"onStreet":"Lochside Regional Trail","location":"N","xStreet":"Cedar Hill Cross Rd","countDirection":"NS","Month":10,"Year":2017,"peakHour":42},"geometry":{"type":"Point","coordinates":[-123.36062234405433,48.471773503453946]}},{"type":"Feature","properties":{"id":56271,"countID":50,"onStreet":"Fort St","location":"W","xStreet":"Vancouver St","countDirection":"EW","Month":10,"Year":2017,"peakHour":48},"geometry":{"type":"Point","coordinates":[-123.35738293741542,48.42377612978392]}},{"type":"Feature","properties":{"id":56283,"countID":52,"onStreet":"Pandora Ave","location":"E","xStreet":"Cook St","countDirection":"EW","Month":10,"Year":2017,"peakHour":61},"geometry":{"type":"Point","coordinates":[-123.35285146351349,48.42712532251511]}},{"type":"Feature","properties":{"id":56303,"countID":53,"onStreet":"Fairfield Rd","location":"E","xStreet":"Cook St","countDirection":"EW","Month":10,"Year":2017,"peakHour":31},"geometry":{"type":"Point","coordinates":[-123.35495931815984,48.417948789391936]}},{"type":"Feature","properties":{"id":56323,"countID":55,"onStreet":"Vancouver St","location":"S","xStreet":"Caledonia Ave","countDirection":"NS","Month":10,"Year":2017,"peakHour":111},"geometry":{"type":"Point","coordinates":[-123.3557657136395,48.43045377112826]}},{"type":"Feature","properties":{"id":56343,"countID":56,"onStreet":"Cook St","location":"S","xStreet":"Caledonia Ave","countDirection":"NS","Month":10,"Year":2017,"peakHour":36},"geometry":{"type":"Point","coordinates":[-123.3528781519416,48.430306413026486]}},{"type":"Feature","properties":{"id":56568,"countID":1,"onStreet":"Wharf St","location":"N","xStreet":"Fort St","countDirection":"NS","Month":5,"Year":2018,"peakHour":174},"geometry":{"type":"Point","coordinates":[-123.3698805351991,48.42552647178671]}},{"type":"Feature","properties":{"id":56588,"countID":2,"onStreet":"Johnson St Bridge","location":"W","xStreet":"Wharf St","countDirection":"EW","Month":5,"Year":2018,"peakHour":404},"geometry":{"type":"Point","coordinates":[-123.37206702285776,48.428034713854494]}},{"type":"Feature","properties":{"id":56608,"countID":3,"onStreet":"E&N Rail Trail","location":"N","xStreet":"Esquimalt Rd","countDirection":"NS","Month":5,"Year":2018,"peakHour":108},"geometry":{"type":"Point","coordinates":[-123.38869810027232,48.430816568151975]}},{"type":"Feature","properties":{"id":56628,"countID":4,"onStreet":"Galloping Goose Regional Trail","location":"S","xStreet":"Information Booth at Switch Bridge","countDirection":"NS","Month":5,"Year":2018,"peakHour":247},"geometry":{"type":"Point","coordinates":[-123.37754441076837,48.45557214844046]}},{"type":"Feature","properties":{"id":56648,"countID":5,"onStreet":"Lochside Regional Trail","location":"S","xStreet":"McKenzie Ave","countDirection":"NS","Month":5,"Year":2018,"peakHour":198},"geometry":{"type":"Point","coordinates":[-123.36141697354498,48.470277414630445]}},{"type":"Feature","properties":{"id":56668,"countID":6,"onStreet":"Interuban Rd","location":"N","xStreet":"Burnside Rd W","countDirection":"NS","Month":5,"Year":2018,"peakHour":64},"geometry":{"type":"Point","coordinates":[-123.39449549745305,48.45920330553605]}},{"type":"Feature","properties":{"id":56676,"countID":7,"onStreet":"E&N Rail Trail","location":"S","xStreet":"Portage Park Trail","countDirection":"NS","Month":5,"Year":2018,"peakHour":266},"geometry":{"type":"Point","coordinates":[-123.43147854051468,48.45175381135078]}},{"type":"Feature","properties":{"id":56696,"countID":8,"onStreet":"Galloping Goose Regional Trail","location":"S","xStreet":"Selkirk Trestle","countDirection":"NS","Month":5,"Year":2018,"peakHour":564},"geometry":{"type":"Point","coordinates":[-123.38292163826003,48.437610962862614]}},{"type":"Feature","properties":{"id":56716,"countID":9,"onStreet":"Government St","location":"S","xStreet":"Bay St","countDirection":"NS","Month":5,"Year":2018,"peakHour":40},"geometry":{"type":"Point","coordinates":[-123.36730572991469,48.43553523099169]}},{"type":"Feature","properties":{"id":56736,"countID":10,"onStreet":"Douglas St","location":"S","xStreet":"Bay St","countDirection":"NS","Month":5,"Year":2018,"peakHour":34},"geometry":{"type":"Point","coordinates":[-123.36530705951395,48.43545934678906]}},{"type":"Feature","properties":{"id":56756,"countID":11,"onStreet":"Blanshard St","location":"S","xStreet":"Bay St","countDirection":"NS","Month":5,"Year":2018,"peakHour":32},"geometry":{"type":"Point","coordinates":[-123.362841575443,48.43499867900939]}},{"type":"Feature","properties":{"id":56776,"countID":12,"onStreet":"Haultain St","location":"W","xStreet":"Forbes St","countDirection":"EW","Month":5,"Year":2018,"peakHour":156},"geometry":{"type":"Point","coordinates":[-123.33920825298077,48.43614184489773]}},{"type":"Feature","properties":{"id":56796,"countID":13,"onStreet":"Cook St","location":"S","xStreet":"Fort St","countDirection":"NS","Month":5,"Year":2018,"peakHour":83},"geometry":{"type":"Point","coordinates":[-123.35412213668138,48.42312105057403]}},{"type":"Feature","properties":{"id":56816,"countID":14,"onStreet":"Vancouver St","location":"S","xStreet":"Fort St","countDirection":"NS","Month":5,"Year":2018,"peakHour":117},"geometry":{"type":"Point","coordinates":[-123.3569686289131,48.423453727399675]}},{"type":"Feature","properties":{"id":56836,"countID":15,"onStreet":"Humboldt St","location":"E","xStreet":"Blanshard St","countDirection":"EW","Month":5,"Year":2018,"peakHour":70},"geometry":{"type":"Point","coordinates":[-123.3628058423323,48.41985153295985]}},{"type":"Feature","properties":{"id":56856,"countID":16,"onStreet":"Henderson Rd","location":"S","xStreet":"Cedar Hill Cross Rd","countDirection":"NS","Month":5,"Year":2018,"peakHour":161},"geometry":{"type":"Point","coordinates":[-123.3156686484403,48.458438290730996]}},{"type":"Feature","properties":{"id":56876,"countID":17,"onStreet":"McKenzie Ave","location":"E","xStreet":"Gordon Head Rd","countDirection":"EW","Month":5,"Year":2018,"peakHour":40},"geometry":{"type":"Point","coordinates":[-123.31867673819492,48.468519940721634]}},{"type":"Feature","properties":{"id":56888,"countID":18,"onStreet":"Oak Bay Ave","location":"E","xStreet":"Foul Bay Rd","countDirection":"EW","Month":5,"Year":2018,"peakHour":49},"geometry":{"type":"Point","coordinates":[-123.32229414501802,48.42645426891452]}},{"type":"Feature","properties":{"id":56908,"countID":19,"onStreet":"Dallas Rd","location":"E","xStreet":"Cook St","countDirection":"EW","Month":5,"Year":2018,"peakHour":16},"geometry":{"type":"Point","coordinates":[-123.35748248190215,48.407898983825916]}},{"type":"Feature","properties":{"id":56916,"countID":20,"onStreet":"Fort St","location":"N","xStreet":"Oak Bay Ave","countDirection":"EW","Month":5,"Year":2018,"peakHour":104},"geometry":{"type":"Point","coordinates":[-123.33604135970207,48.42695745577476]}},{"type":"Feature","properties":{"id":56936,"countID":21,"onStreet":"Galloping Goose Regional Trail","location":"N","xStreet":"Sooke Rd","countDirection":"EW","Month":5,"Year":2018,"peakHour":1},"geometry":{"type":"Point","coordinates":[-123.65353014212657,48.39447992556414]}},{"type":"Feature","properties":{"id":56956,"countID":22,"onStreet":"Lochside Dr","location":"S","xStreet":"Royal Oak Dr","countDirection":"NS","Month":5,"Year":2018,"peakHour":75},"geometry":{"type":"Point","coordinates":[-123.36178739518392,48.50111771365756]}},{"type":"Feature","properties":{"id":56968,"countID":23,"onStreet":"Fifth St","location":"S","xStreet":"Ocean Ave","countDirection":"NS","Month":5,"Year":2018,"peakHour":33},"geometry":{"type":"Point","coordinates":[-123.40031178925264,48.643793429812156]}},{"type":"Feature","properties":{"id":56988,"countID":24,"onStreet":"Lochside Regional Trail","location":"S","xStreet":"Ardwell Ave","countDirection":"NS","Month":5,"Year":2018,"peakHour":37},"geometry":{"type":"Point","coordinates":[-123.41631625673523,48.66236226763453]}},{"type":"Feature","properties":{"id":57008,"countID":25,"onStreet":"West Saanich Rd","location":"N","xStreet":"Interurban Rd","countDirection":"NS","Month":5,"Year":2018,"peakHour":10},"geometry":{"type":"Point","coordinates":[-123.41467755807633,48.51153313067925]}},{"type":"Feature","properties":{"id":57028,"countID":27,"onStreet":"Richardson St","location":"E","xStreet":"Cook St","countDirection":"EW","Month":5,"Year":2018,"peakHour":51},"geometry":{"type":"Point","coordinates":[-123.3544390519858,48.41958031408161]}},{"type":"Feature","properties":{"id":57048,"countID":28,"onStreet":"Pandora St","location":"E","xStreet":"Blanshard St","countDirection":"EW","Month":5,"Year":2018,"peakHour":287},"geometry":{"type":"Point","coordinates":[-123.36081357555369,48.42765103630389]}},{"type":"Feature","properties":{"id":57068,"countID":29,"onStreet":"Johnson St","location":"E","xStreet":"Blanshard St","countDirection":"EW","Month":5,"Year":2018,"peakHour":103},"geometry":{"type":"Point","coordinates":[-123.36090655020497,48.42675635586537]}},